.header.seq,.header.stamp.secs,.header.stamp.nsecs,.transform.translation.x,.transform.translation.y,.transform.translation.z
148402,1682211418,802088121,-0.640439795,5.808145918,0.198565127
148403,1682211418,812890318,-0.640447482,5.808153495,0.198568901
148404,1682211418,826438437,-0.640264296,5.808439808,0.199028059
148405,1682211418,832342958,-0.640200388,5.808372561,0.198493265
148406,1682211418,842702917,-0.640357544,5.808288213,0.198727188
148407,1682211418,852587761,-0.640223081,5.808316707,0.198997965
148408,1682211418,862111200,-0.640161541,5.80854125,0.199202703
148409,1682211418,872383639,-0.64013802,5.808600382,0.199336139
148410,1682211418,882203748,-0.640165797,5.808493996,0.19912997
148411,1682211418,893441620,-0.640059364,5.808629787,0.199328908
148412,1682211418,902809385,-0.640053907,5.808597052,0.199094598
148413,1682211418,911932556,-0.639926571,5.80865612,0.198904199
148414,1682211418,922469973,-0.640081516,5.808418603,0.198486408
148415,1682211418,933198285,-0.639934554,5.808574785,0.198658684
148416,1682211418,942217717,-0.639792555,5.808860617,0.198894947
148417,1682211418,952347352,-0.639822935,5.808877547,0.199136012
148418,1682211418,962248225,-0.639552725,5.80906086,0.198994633
148419,1682211418,972228123,-0.639348644,5.809268155,0.199142543
148420,1682211418,983232958,-0.639401166,5.809013179,0.198736371
148421,1682211418,992310688,-0.639369299,5.809059397,0.198733614
148422,1682211419,2292008,-0.639057831,5.80942641,0.199343467
148423,1682211419,12635484,-0.638934898,5.809592834,0.199566325
148424,1682211419,22578825,-0.638724769,5.809647291,0.199462698
148425,1682211419,33596740,-0.638635494,5.809827338,0.199625086
148426,1682211419,42399475,-0.638474895,5.810024423,0.199722521
148427,1682211419,52698197,-0.638289275,5.810129962,0.199877589
148428,1682211419,63971272,-0.638242336,5.810080765,0.199961437
148429,1682211419,72352680,-0.63820936,5.81022797,0.200429983
148430,1682211419,83459841,-0.63796758,5.810457338,0.200856153
148431,1682211419,94523965,-0.63779438,5.810499398,0.201235937
148432,1682211419,103864375,-0.637571088,5.810879959,0.201805158
148433,1682211419,113814590,-0.637465434,5.810992268,0.202290894
148434,1682211419,122649288,-0.637009512,5.811459401,0.203252867
148435,1682211419,132561427,-0.636869749,5.811724924,0.203652255
148436,1682211419,142614224,-0.636784823,5.811824559,0.204414637
148437,1682211419,152713750,-0.636772342,5.812105682,0.204996626
148438,1682211419,162479074,-0.636669437,5.812196718,0.205753624
148439,1682211419,172488693,-0.636491003,5.812639164,0.206820565
148440,1682211419,182972750,-0.636464465,5.812947842,0.207622857
148441,1682211419,192909872,-0.636362361,5.813637636,0.208664595
148442,1682211419,202625914,-0.636339464,5.81417963,0.209718345
148443,1682211419,212835606,-0.636209929,5.814299579,0.210612457
148444,1682211419,222536089,-0.636165815,5.814846118,0.211934318
148445,1682211419,232561685,-0.636205424,5.815231582,0.21326949
148446,1682211419,242953952,-0.636319882,5.815569863,0.214431531
148447,1682211419,252365879,-0.636351701,5.816378812,0.216151152
148448,1682211419,262913535,-0.63645866,5.816473337,0.217387509
148449,1682211419,273444130,-0.63655444,5.81708253,0.219220421
148450,1682211419,283437048,-0.636784643,5.817633331,0.220893949
148451,1682211419,292707812,-0.63686562,5.818158834,0.222465656
148452,1682211419,302800784,-0.637030234,5.818671664,0.224476802
148453,1682211419,312492115,-0.637509889,5.819243698,0.227118032
148454,1682211419,322932517,-0.637656145,5.820011816,0.229506919
148455,1682211419,332462631,-0.638221719,5.820262659,0.231500542
148456,1682211419,342470828,-0.63844331,5.821011073,0.233953413
148457,1682211419,354909244,-0.639025189,5.821609019,0.236461194
148458,1682211419,362583825,-0.63936903,5.822188343,0.238992159
148459,1682211419,372716048,-0.640006694,5.822644863,0.241225011
148460,1682211419,382305985,-0.640488919,5.823388975,0.243881404
148461,1682211419,392417026,-0.641113206,5.823972228,0.246283104
148462,1682211419,403322585,-0.641753762,5.824360332,0.248501331
148463,1682211419,412153130,-0.642198096,5.824953373,0.251495773
148464,1682211419,423346034,-0.642670697,5.825487908,0.254085655
148465,1682211419,432299220,-0.643365695,5.826011752,0.256548323
148466,1682211419,442160973,-0.644043597,5.826708382,0.259043996
148467,1682211419,452332572,-0.644731162,5.82739003,0.261733155
148468,1682211419,462357360,-0.645782403,5.828628658,0.264359522
148469,1682211419,472388568,-0.646578965,5.828884286,0.266852176
148470,1682211419,482660690,-0.647444381,5.829627203,0.269554338
148471,1682211419,493862944,-0.64832407,5.83027915,0.27217636
148472,1682211419,502339443,-0.649258986,5.831196789,0.274931096
148473,1682211419,512289733,-0.650242334,5.831790453,0.277479466
148474,1682211419,523072883,-0.651119848,5.832554837,0.280190512
148475,1682211419,532684783,-0.65209343,5.833055288,0.282449042
148476,1682211419,542484328,-0.653095441,5.833790448,0.285715076
148477,1682211419,552320608,-0.65417458,5.83438355,0.288318474
148478,1682211419,562816124,-0.655163257,5.835198175,0.291254784
148479,1682211419,572267997,-0.656465618,5.835328795,0.29355164
148480,1682211419,582629316,-0.657356951,5.836464728,0.296336856
148481,1682211419,592851331,-0.658397263,5.837240449,0.29957457
148482,1682211419,602286682,-0.6595063,5.837575402,0.302287992
148483,1682211419,612740433,-0.660761239,5.83842899,0.305064835
148484,1682211419,622481851,-0.661759032,5.83916778,0.308100548
148485,1682211419,632491310,-0.662793079,5.840062421,0.311240232
148486,1682211419,642440305,-0.663778645,5.840828685,0.314039275
148487,1682211419,652483927,-0.664782342,5.841712066,0.317262986
148488,1682211419,662763058,-0.666080713,5.841890228,0.319879108
148489,1682211419,672226313,-0.667347864,5.842874779,0.32300978
148490,1682211419,682637093,-0.668437458,5.843173641,0.325857923
148491,1682211419,692471344,-0.669608311,5.844450182,0.32912871
148492,1682211419,702492695,-0.67069001,5.845000433,0.331979101
148493,1682211419,712492838,-0.671817774,5.845457473,0.334958123
148494,1682211419,722415909,-0.672994227,5.846310086,0.33811357
148495,1682211419,733047592,-0.674242016,5.847223509,0.341414979
148496,1682211419,742419481,-0.675059236,5.848114001,0.344842527
148497,1682211419,753460798,-0.676266193,5.848732777,0.347709847
148498,1682211419,764247673,-0.67745187,5.849386079,0.35096422
148499,1682211419,783490106,-0.67959723,5.850307025,0.357153862
148500,1682211419,793700096,-0.680691169,5.851401605,0.360874023
148501,1682211419,803171288,-0.681805244,5.852084834,0.364184152
148502,1682211419,812889057,-0.68289683,5.852755235,0.367120616
148503,1682211419,842588169,-0.685915994,5.854558718,0.37742654
148504,1682211419,852392413,-0.686805735,5.855327475,0.380914118
148505,1682211419,861999522,-0.687769393,5.856042733,0.384625181
148506,1682211419,872140692,-0.688531845,5.85685026,0.388301016
148507,1682211419,886601566,-0.689623757,5.857149713,0.391643392
148508,1682211419,903498004,-0.691359409,5.85842194,0.398530645
148509,1682211419,911756192,-0.692359835,5.85882351,0.401933395
148510,1682211419,922936694,-0.692884116,5.859807429,0.40623898
148511,1682211419,951231909,-0.6952993,5.861364049,0.416950466
148512,1682211419,960854265,-0.696236318,5.861697889,0.420317455
148513,1682211419,970346266,-0.696613306,5.862594685,0.424278573
148514,1682211419,980896122,-0.697370115,5.862860564,0.427882597
148515,1682211419,991927838,-0.698151224,5.86326736,0.431663182
148516,1682211420,368841,-0.698667555,5.864148609,0.435872089
148517,1682211420,10225254,-0.699426222,5.864434655,0.439375759
148518,1682211420,22261789,-0.699778886,5.864839173,0.443059335
148519,1682211420,31257744,-0.700408861,5.865365816,0.447116268
148520,1682211420,41055602,-0.701051844,5.86580298,0.450890468
148521,1682211420,50960641,-0.70161888,5.866307355,0.45473408
148522,1682211420,62431680,-0.702440106,5.866709226,0.457922648
148523,1682211420,71445959,-0.702543552,5.867291552,0.462088574
148524,1682211420,81474782,-0.703173031,5.86786862,0.465765646
148525,1682211420,91952332,-0.703748845,5.868199034,0.469805797
148526,1682211420,102396627,-0.704177475,5.868596293,0.473846189
148527,1682211420,112606322,-0.704698347,5.868926399,0.477869955
148528,1682211420,122191819,-0.704935708,5.869587133,0.481930232
148529,1682211420,134178592,-0.705309798,5.870209941,0.486097099
148530,1682211420,146126823,-0.705851417,5.870565929,0.489985961
148531,1682211420,152260943,-0.706322797,5.8708404,0.493812181
148532,1682211420,162930127,-0.70679762,5.871459215,0.498101124
148533,1682211420,172806073,-0.707038074,5.871956489,0.502569746
148534,1682211420,184835813,-0.707494967,5.872440375,0.506515713
148535,1682211420,192744025,-0.707729303,5.872790851,0.510252902
148536,1682211420,203547523,-0.70817508,5.873224446,0.514308029
148537,1682211420,212961256,-0.7083547,5.873792694,0.518784224
148538,1682211420,223715672,-0.708746467,5.874188097,0.523146702
148539,1682211420,233817685,-0.709201755,5.874744231,0.527798621
148540,1682211420,242398051,-0.709411682,5.875207571,0.53214065
148541,1682211420,252179323,-0.709872925,5.875734446,0.536478661
148542,1682211420,262377340,-0.710100318,5.87613507,0.541004693
148543,1682211420,272380387,-0.710457188,5.876562829,0.54507823
148544,1682211420,282187553,-0.710745672,5.877161954,0.549604796
148545,1682211420,292483251,-0.710974664,5.877688754,0.554183592
148546,1682211420,303546865,-0.711033467,5.878295469,0.55900061
148547,1682211420,312385086,-0.711446936,5.878540726,0.562913761
148548,1682211420,322392079,-0.711810431,5.879045284,0.567394245
148549,1682211420,332477087,-0.712081598,5.879432489,0.572052167
148550,1682211420,343202446,-0.712176801,5.880001262,0.576861979
148551,1682211420,353153524,-0.712358719,5.880641602,0.581465438
148552,1682211420,362466353,-0.712641858,5.881190305,0.586011617
148553,1682211420,372423780,-0.712894012,5.881634957,0.590697125
148554,1682211420,383217619,-0.712994014,5.88215272,0.595174984
148555,1682211420,395005193,-0.713114486,5.882807643,0.600084229
148556,1682211420,402665125,-0.713271165,5.883185589,0.604968287
148557,1682211420,412364627,-0.713263956,5.883981326,0.609258185
148558,1682211420,423892967,-0.713525236,5.884488636,0.614305154
148559,1682211420,432382667,-0.713545848,5.88510159,0.618807126
148560,1682211420,442529540,-0.713738655,5.885575964,0.623955546
148561,1682211420,452842538,-0.713781387,5.886155297,0.628131309
148562,1682211420,463277217,-0.713885367,5.886734832,0.632779872
148563,1682211420,472659851,-0.71381048,5.887390416,0.637692892
148564,1682211420,482728751,-0.713931111,5.887966848,0.642417496
148565,1682211420,492273198,-0.714074146,5.888606439,0.647399563
148566,1682211420,503687242,-0.713991574,5.889111953,0.65177964
148567,1682211420,511963073,-0.714121979,5.889718593,0.656856763
148568,1682211420,522244202,-0.713977046,5.890295699,0.661255323
148569,1682211420,533204742,-0.713997783,5.890944616,0.666199654
148570,1682211420,542206085,-0.713767796,5.891538902,0.670566626
148571,1682211420,552401202,-0.713841826,5.892163036,0.675662769
148572,1682211420,563468923,-0.713739645,5.892673897,0.680279874
148573,1682211420,572056229,-0.713561118,5.893348561,0.684863535
148574,1682211420,582870488,-0.713535367,5.893857158,0.689708833
148575,1682211420,592425307,-0.71333194,5.894518633,0.694175184
148576,1682211420,602273664,-0.713161732,5.895140249,0.698800938
148577,1682211420,612127260,-0.712984585,5.895848625,0.703703156
148578,1682211420,621974150,-0.712938163,5.89638203,0.708672646
148579,1682211420,631933012,-0.712794105,5.897080629,0.713447444
148580,1682211420,642025977,-0.712588068,5.89771579,0.718240092
148581,1682211420,652137997,-0.712313251,5.898223778,0.722904663
148582,1682211420,662456972,-0.712047101,5.89905699,0.727908505
148583,1682211420,672310882,-0.711776078,5.899628341,0.732962739
148584,1682211420,682809547,-0.711556456,5.900398873,0.737483633
148585,1682211420,692351728,-0.711320972,5.901068178,0.742170341
148586,1682211420,702184758,-0.711069343,5.901766695,0.747055077
148587,1682211420,712143399,-0.710819288,5.902373743,0.751884534
148588,1682211420,722550500,-0.710661559,5.902948659,0.75690618
148589,1682211420,733122663,-0.710266402,5.903739275,0.761580705
148590,1682211420,742452015,-0.710024492,5.904303921,0.766266296
148591,1682211420,752359998,-0.709729562,5.905043913,0.771258038
148592,1682211420,762192993,-0.70956314,5.905534839,0.776093264
148593,1682211420,773683473,-0.709240501,5.906369007,0.780836065
148594,1682211420,784031622,-0.708899073,5.907126071,0.78585693
148595,1682211420,792542015,-0.708377923,5.90781591,0.790312293
148596,1682211420,812487117,-0.707943447,5.909155189,0.799810046
148597,1682211420,832948344,-0.70749798,5.91049359,0.809943583
148598,1682211420,843123541,-0.707169494,5.911237224,0.81498342
148599,1682211420,853720940,-0.706904684,5.911906101,0.819885152
148600,1682211420,865519117,-0.706457335,5.912703448,0.824359324
148601,1682211420,882594729,-0.705874733,5.913811812,0.834198314
148602,1682211420,892306229,-0.705617799,5.914769147,0.839301683
148603,1682211420,903171308,-0.705404394,5.91523735,0.844232187
148604,1682211420,911093674,-0.70503371,5.916094056,0.848958401
148605,1682211420,921812508,-0.704708458,5.916548417,0.853817633
148606,1682211420,932652872,-0.704285164,5.917471588,0.858678079
148607,1682211420,942980628,-0.704072176,5.918069664,0.863332899
148608,1682211420,971624283,-0.70303447,5.920105455,0.878075492
148609,1682211420,982254181,-0.702720293,5.920787239,0.882934182
148610,1682211420,990510853,-0.702390348,5.9214346,0.887651261
148611,1682211421,863829,-0.702020336,5.92200287,0.892381427
148612,1682211421,11333821,-0.701638929,5.922786634,0.897349042
148613,1682211421,22593405,-0.701248904,5.923437785,0.902638211
148614,1682211421,31484990,-0.70095321,5.924105501,0.907231389
148615,1682211421,41592536,-0.700529606,5.924687109,0.912024174
148616,1682211421,50841175,-0.700117223,5.925341092,0.91692249
148617,1682211421,61482683,-0.699735682,5.925987646,0.921746498
148618,1682211421,71918265,-0.699316292,5.926665827,0.926740926
148619,1682211421,81977227,-0.698963365,5.92701117,0.931335163
148620,1682211421,94137463,-0.698453968,5.927466367,0.936471417
148621,1682211421,102389401,-0.698123362,5.928361615,0.94133977
148622,1682211421,111996551,-0.697642933,5.928903253,0.94644414
148623,1682211421,122498223,-0.697201965,5.929578775,0.951178713
148624,1682211421,132646993,-0.696703147,5.929948871,0.955965043
148625,1682211421,142659157,-0.696417394,5.930529234,0.960848022
148626,1682211421,152198778,-0.695898657,5.931090479,0.966188019
148627,1682211421,162166532,-0.695318027,5.931602817,0.970234473
148628,1682211421,172216231,-0.694784266,5.932045783,0.975188868
148629,1682211421,183280450,-0.694441618,5.932634504,0.980081902
148630,1682211421,192505198,-0.693905482,5.933210807,0.985112308
148631,1682211421,202527129,-0.693379138,5.933568214,0.990033945
148632,1682211421,212400007,-0.693078746,5.934103975,0.995077765
148633,1682211421,222859549,-0.692487116,5.934534216,1.000011265
148634,1682211421,233828065,-0.692024366,5.935019148,1.005126212
148635,1682211421,242265977,-0.691526492,5.935488255,1.010062742
148636,1682211421,253725570,-0.690981069,5.935906168,1.014872496
148637,1682211421,262551165,-0.690206846,5.936420263,1.020024108
148638,1682211421,273657713,-0.689702609,5.936684004,1.024945224
148639,1682211421,282316048,-0.689315875,5.93704124,1.029864327
148640,1682211421,293664259,-0.688753531,5.937439751,1.0348188
148641,1682211421,302578293,-0.688206362,5.937720586,1.039693103
148642,1682211421,312685310,-0.687675012,5.938095303,1.044811806
148643,1682211421,322253576,-0.686926908,5.938292146,1.049606831
148644,1682211421,332637497,-0.686483023,5.938696047,1.054811717
148645,1682211421,342470574,-0.685888139,5.938994783,1.059760519
148646,1682211421,353468448,-0.685224467,5.93922201,1.064586569
148647,1682211421,362476271,-0.684623577,5.939432934,1.069652639
148648,1682211421,372657493,-0.684226683,5.939648204,1.074677991
148649,1682211421,383111101,-0.683545038,5.939802976,1.079621937
148650,1682211421,392246051,-0.683070229,5.939947291,1.084812849
148651,1682211421,402685073,-0.682333382,5.94014741,1.089873962
148652,1682211421,412737310,-0.681597954,5.940213505,1.094738148
148653,1682211421,422907692,-0.681017881,5.940517779,1.099743161
148654,1682211421,432865397,-0.680248927,5.940705293,1.104483712
148655,1682211421,442467580,-0.679581997,5.940800566,1.109458898
148656,1682211421,453707436,-0.678776368,5.940812205,1.1143272
148657,1682211421,464129824,-0.678163883,5.9408799,1.119278065
148658,1682211421,472578794,-0.677416333,5.941022536,1.124417878
148659,1682211421,483035475,-0.676778207,5.941017922,1.129271328
148660,1682211421,492634817,-0.6760259,5.941071787,1.134332594
148661,1682211421,502736041,-0.675228058,5.941083408,1.139243805
148662,1682211421,513646599,-0.674495552,5.941113031,1.144363983
148663,1682211421,522475520,-0.673756052,5.940977887,1.149251288
148664,1682211421,532482741,-0.672982575,5.941015454,1.15426851
148665,1682211421,542621267,-0.67226106,5.940950849,1.159049716
148666,1682211421,552470390,-0.671470145,5.940879491,1.163738101
148667,1682211421,562621897,-0.670714121,5.940820421,1.168366162
148668,1682211421,572858605,-0.669944381,5.940768863,1.173059973
148669,1682211421,583943835,-0.669149704,5.940698684,1.177519004
148670,1682211421,592576803,-0.668356877,5.940645208,1.181932171
148671,1682211421,602666107,-0.667504039,5.940479112,1.186151047
148672,1682211421,613328002,-0.666821687,5.940493843,1.190264083
148673,1682211421,623540089,-0.665998115,5.940263459,1.194261646
148674,1682211421,632790257,-0.665184993,5.940193342,1.198401178
148675,1682211421,642506579,-0.664489612,5.939920416,1.202347826
148676,1682211421,652870712,-0.663734261,5.939991557,1.206003523
148677,1682211421,662868817,-0.662985308,5.939834362,1.209813786
148678,1682211421,672358720,-0.662207176,5.939711191,1.213379912
148679,1682211421,683059167,-0.661379976,5.9397096,1.216697679
148680,1682211421,692686484,-0.66056744,5.939605885,1.220084579
148681,1682211421,702943742,-0.659766086,5.939451915,1.223456478
148682,1682211421,712623918,-0.659030311,5.939426751,1.227087103
148683,1682211421,722346598,-0.658251512,5.939281477,1.230279903
148684,1682211421,732672894,-0.657453156,5.939053839,1.23299556
148685,1682211421,743411606,-0.65671598,5.938915692,1.23627865
148686,1682211421,752777716,-0.655940728,5.93880018,1.239286031
148687,1682211421,762988461,-0.655138373,5.938865528,1.242549721
148688,1682211421,772261276,-0.654277657,5.938571116,1.245048965
148689,1682211421,783138718,-0.653519782,5.938468266,1.247934718
148690,1682211421,792393010,-0.652754208,5.938317558,1.250708536
148691,1682211421,802702025,-0.651985124,5.938212619,1.25347817
148692,1682211421,813621101,-0.651256282,5.938037861,1.256417164
148693,1682211421,823208686,-0.650510051,5.937861444,1.259103816
148694,1682211421,833132715,-0.649733526,5.93773697,1.261778434
148695,1682211421,842333005,-0.648864661,5.937671648,1.264283221
148696,1682211421,853434619,-0.647958279,5.937417601,1.266959911
148697,1682211421,865663994,-0.647297543,5.937457065,1.269489724
148698,1682211421,872832301,-0.646596627,5.937195262,1.271992489
148699,1682211421,882876899,-0.645741338,5.937181965,1.274537697
148700,1682211421,892484364,-0.645042889,5.936928717,1.2770248
148701,1682211421,905169724,-0.644314697,5.93679926,1.279395814
148702,1682211421,912334210,-0.643525083,5.936731493,1.281916854
148703,1682211421,924071822,-0.642727299,5.936771058,1.28412619
148704,1682211421,932374688,-0.641807153,5.936658223,1.286394067
148705,1682211421,942367417,-0.641044032,5.93659257,1.288811689
148706,1682211421,953403987,-0.640319059,5.936416202,1.291165283
148707,1682211421,963351442,-0.639519995,5.936310792,1.293533361
148708,1682211421,973158902,-0.638769092,5.936336507,1.295795173
148709,1682211421,982653822,-0.638001828,5.936167497,1.297953718
148710,1682211421,992276651,-0.637261738,5.936173483,1.300284078
148711,1682211422,2387176,-0.636468678,5.935933321,1.302675635
148712,1682211422,12499945,-0.635731375,5.935851515,1.304933783
148713,1682211422,22410296,-0.634955305,5.935781278,1.307145738
148714,1682211422,35290853,-0.634192412,5.935722947,1.309374882
148715,1682211422,44846403,-0.633399761,5.935682477,1.311618942
148716,1682211422,53318912,-0.632664496,5.935643866,1.313932483
148717,1682211422,64102993,-0.631894792,5.935560026,1.316223242
148718,1682211422,72182757,-0.631069787,5.935471287,1.318436084
148719,1682211422,82288835,-0.630306205,5.935374472,1.320822392
148720,1682211422,93237690,-0.629404175,5.935342295,1.322919458
148721,1682211422,102256341,-0.628718104,5.935387291,1.325201607
148722,1682211422,113161381,-0.628040561,5.935352747,1.327704996
148723,1682211422,122405839,-0.627234279,5.935319609,1.329945199
148724,1682211422,132752530,-0.62642121,5.935256736,1.332216244
148725,1682211422,142513764,-0.625600292,5.935257526,1.334476986
148726,1682211422,152513378,-0.624703416,5.935196221,1.336761074
148727,1682211422,163676650,-0.623958492,5.935157305,1.338947024
148728,1682211422,172731208,-0.623122005,5.935248671,1.341117922
148729,1682211422,184818782,-0.622247315,5.935158472,1.343450545
148730,1682211422,192266302,-0.621410838,5.935075106,1.345591041
148731,1682211422,202193113,-0.620524792,5.935084936,1.347922634
148732,1682211422,213216192,-0.619687662,5.934980715,1.349991188
148733,1682211422,224706724,-0.618787431,5.935089005,1.352246309
148734,1682211422,232314566,-0.617909157,5.93505872,1.354346708
148735,1682211422,242416007,-0.617039783,5.935027894,1.356488022
148736,1682211422,252778280,-0.61610986,5.93494864,1.358663662
148737,1682211422,262454721,-0.615213312,5.934940099,1.360792903
148738,1682211422,272517272,-0.614336267,5.934994372,1.362836141
148739,1682211422,283698150,-0.613457193,5.934950716,1.364884262
148740,1682211422,292651071,-0.612510247,5.934992151,1.367006242
148741,1682211422,302793189,-0.611598798,5.934984046,1.369024121
148742,1682211422,312225802,-0.61067677,5.934935381,1.371076311
148743,1682211422,322234722,-0.609706921,5.934869778,1.37304648
148744,1682211422,332478853,-0.608813185,5.934928266,1.375108725
148745,1682211422,343815627,-0.607912642,5.935008689,1.377016955
148746,1682211422,352419572,-0.606984087,5.935037966,1.379011444
148747,1682211422,363324786,-0.606035525,5.935033624,1.380945811
148748,1682211422,372104635,-0.605099278,5.93494748,1.382835625
148749,1682211422,384108203,-0.604132629,5.934997536,1.3847958
148750,1682211422,392400651,-0.603205492,5.935077923,1.386725239
148751,1682211422,402575310,-0.602256467,5.935073769,1.388586675
148752,1682211422,412463888,-0.601294143,5.935116524,1.39044279
148753,1682211422,422566224,-0.600356732,5.935142955,1.392297734
148754,1682211422,432639545,-0.599395452,5.935147952,1.394160936
148755,1682211422,442174498,-0.598421708,5.935176931,1.396010071
148756,1682211422,452274152,-0.597470152,5.935200204,1.397859471
148757,1682211422,462219360,-0.596523645,5.935256587,1.399602946
148758,1682211422,472993646,-0.595560548,5.93535544,1.401393074
148759,1682211422,484808003,-0.594590393,5.935420246,1.403225194
148760,1682211422,492249112,-0.593624467,5.93545733,1.404948346
148761,1682211422,502694521,-0.592650435,5.935487954,1.406731951
148762,1682211422,512239321,-0.591688668,5.935507452,1.40837865
148763,1682211422,524182955,-0.590717199,5.935663522,1.410158889
148764,1682211422,532914446,-0.589736723,5.935687928,1.411705876
148765,1682211422,543030919,-0.588782824,5.935913021,1.413432715
148766,1682211422,552524784,-0.587657159,5.935882063,1.415034162
148767,1682211422,562591616,-0.586796732,5.93602092,1.416620549
148768,1682211422,572372579,-0.585804831,5.936138676,1.418194205
148769,1682211422,582571821,-0.584862333,5.936280745,1.419794084
148770,1682211422,592774001,-0.583827502,5.936380318,1.421371703
148771,1682211422,602342986,-0.582833259,5.936482525,1.422769439
148772,1682211422,612284258,-0.581860752,5.936527473,1.42419545
148773,1682211422,622439695,-0.580869252,5.936740232,1.425690767
148774,1682211422,634403023,-0.579868024,5.936933257,1.427141514
148775,1682211422,642447137,-0.578903762,5.93703553,1.428469125
148776,1682211422,652974198,-0.577920902,5.937177794,1.429832115
148777,1682211422,662199567,-0.576938774,5.937342192,1.431174897
148778,1682211422,673493152,-0.575969101,5.937485378,1.432456745
148779,1682211422,682253273,-0.574989508,5.937637893,1.4336447
148780,1682211422,692414589,-0.574037857,5.937804641,1.434874381
148781,1682211422,702415166,-0.573051528,5.937951262,1.436104416
148782,1682211422,712251850,-0.572126841,5.938083029,1.437200848
148783,1682211422,722237735,-0.571131303,5.938315414,1.438343295
148784,1682211422,733541452,-0.570102877,5.938463651,1.439390498
148785,1682211422,742200929,-0.569227134,5.938657846,1.440459842
148786,1682211422,752607050,-0.56825096,5.938822133,1.441426197
148787,1682211422,762425987,-0.5673854,5.93899638,1.442401247
148788,1682211422,772935379,-0.566411434,5.93919214,1.443365301
148789,1682211422,783863107,-0.565477283,5.939453036,1.444362239
148790,1682211422,792237841,-0.564549783,5.93967367,1.445245301
148791,1682211422,803140759,-0.563582676,5.940014789,1.446261799
148792,1682211422,812474021,-0.562669752,5.940180506,1.447106412
148793,1682211422,822297085,-0.561779234,5.940329927,1.447948482
148794,1682211422,832245390,-0.560903441,5.940401661,1.448545956
148795,1682211422,842927737,-0.560004415,5.940728123,1.449285094
148796,1682211422,852961942,-0.559082758,5.94094182,1.450062321
148797,1682211422,862559398,-0.558166218,5.941159421,1.450816288
148798,1682211422,872735336,-0.557281516,5.941366937,1.451552575
148799,1682211422,883281412,-0.556365098,5.94154362,1.452185468
148800,1682211422,892635489,-0.555484116,5.941791735,1.452940874
148801,1682211422,902471353,-0.554619318,5.942014612,1.45353414
148802,1682211422,912649801,-0.553730104,5.942235499,1.454159703
148803,1682211422,922693790,-0.5528927,5.942371108,1.454776272
148804,1682211422,932611333,-0.55199887,5.94258461,1.455385531
148805,1682211422,943050044,-0.551117885,5.942831573,1.456066573
148806,1682211422,953494202,-0.550261661,5.943085031,1.456614949
148807,1682211422,963240929,-0.549380351,5.94331662,1.457179009
148808,1682211422,972429655,-0.548550594,5.943533966,1.457734792
148809,1682211422,982585809,-0.547650792,5.94378341,1.458326802
148810,1682211422,992864603,-0.546827604,5.94398016,1.458903074
148811,1682211423,2553315,-0.545995698,5.944123351,1.459378775
148812,1682211423,12634070,-0.545126759,5.944350253,1.45995747
148813,1682211423,22702004,-0.544287066,5.944674884,1.460586108
148814,1682211423,33553347,-0.543308542,5.944902033,1.461200543
148815,1682211423,42261276,-0.542586772,5.945210833,1.461772946
148816,1682211423,52474718,-0.541782067,5.945382582,1.462169168
148817,1682211423,62412508,-0.540925025,5.945573844,1.462717482
148818,1682211423,72481380,-0.540122135,5.945811337,1.463257966
148819,1682211423,82283359,-0.539313882,5.946031092,1.463805757
148820,1682211423,92652791,-0.53846397,5.946220519,1.464277991
148821,1682211423,103155693,-0.537678156,5.946233757,1.464473973
148822,1682211423,112858004,-0.536872504,5.946478588,1.465143982
148823,1682211423,122480513,-0.53604623,5.946595989,1.465606565
148824,1682211423,132406158,-0.535215227,5.946831736,1.466145285
148825,1682211423,142512780,-0.534409932,5.9470563,1.466664203
148826,1682211423,152613602,-0.53358486,5.947349881,1.467217324
148827,1682211423,163128692,-0.532529203,5.947245563,1.467526327
148828,1682211423,172801340,-0.531956684,5.947585156,1.468033782
148829,1682211423,182440629,-0.531135345,5.947821804,1.46855827
148830,1682211423,192670643,-0.530225598,5.948112173,1.469000818
148831,1682211423,202647583,-0.529407954,5.94827088,1.469452299
148832,1682211423,212378297,-0.528488322,5.948536082,1.469687393
148833,1682211423,222701033,-0.527742933,5.948596688,1.470223646
148834,1682211423,232751833,-0.526921569,5.948764784,1.470685424
148835,1682211423,242911902,-0.526122758,5.948929762,1.471170022
148836,1682211423,252772158,-0.525402968,5.949286953,1.472145706
148837,1682211423,262361608,-0.524524667,5.949283248,1.47236821
148838,1682211423,272575003,-0.523790221,5.949482837,1.472783985
148839,1682211423,282369506,-0.522929229,5.949638496,1.473204202
148840,1682211423,293887589,-0.522164859,5.949881081,1.473712056
148841,1682211423,302542276,-0.521299927,5.950203129,1.474430232
148842,1682211423,313206690,-0.520502778,5.950141326,1.474609532
148843,1682211423,322539502,-0.519688586,5.950294213,1.475042053
148844,1682211423,332622842,-0.518812326,5.950470158,1.47552162
148845,1682211423,342179417,-0.518022723,5.950701926,1.475883096
148846,1682211423,353089278,-0.517194756,5.950854591,1.476384023
148847,1682211423,362391628,-0.516312717,5.950999849,1.476789384
148848,1682211423,372258872,-0.515500238,5.951193324,1.477228629
148849,1682211423,382537566,-0.514639143,5.951378339,1.477660458
148850,1682211423,392742893,-0.513804396,5.951619322,1.47812233
148851,1682211423,402611303,-0.512924871,5.951786882,1.478508192
148852,1682211423,412297369,-0.512041462,5.951887906,1.478733226
148853,1682211423,422415779,-0.511211305,5.95206272,1.479115472
148854,1682211423,432786957,-0.510347444,5.952289325,1.47957407
148855,1682211423,442147695,-0.509405835,5.952417317,1.479944972
148856,1682211423,452772412,-0.508680595,5.952467224,1.480208415
148857,1682211423,462385929,-0.507750981,5.952824701,1.480374965
148858,1682211423,473002063,-0.506921536,5.95293911,1.480710641
148859,1682211423,482660711,-0.505842377,5.953139372,1.480751338
148860,1682211423,492285687,-0.50516488,5.95323506,1.481244243
148861,1682211423,503127250,-0.504232678,5.953371456,1.481494288
148862,1682211423,512833081,-0.503324664,5.953709599,1.481614591
148863,1682211423,523017503,-0.502501173,5.953823127,1.481932344
148864,1682211423,533363024,-0.5015937,5.953981891,1.482065104
148865,1682211423,543404509,-0.500741581,5.954181703,1.482182309
148866,1682211423,554562116,-0.49980876,5.954348547,1.48248165
148867,1682211423,562466076,-0.498890337,5.954625095,1.482498753
148868,1682211423,572655965,-0.498036909,5.954755153,1.482494827
148869,1682211423,583023037,-0.497068818,5.954865737,1.482662734
148870,1682211423,593994370,-0.496290839,5.95515885,1.482727924
148871,1682211423,602193069,-0.495309517,5.955417418,1.482857209
148872,1682211423,612372880,-0.494376362,5.955497106,1.48281623
148873,1682211423,622430984,-0.493576053,5.955756898,1.482870572
148874,1682211423,632863872,-0.492671513,5.955936832,1.482872453
148875,1682211423,643298089,-0.491816171,5.956167726,1.482890039
148876,1682211423,652591804,-0.490945513,5.956375178,1.482936017
148877,1682211423,662360581,-0.490077311,5.956508686,1.482872219
148878,1682211423,672761511,-0.489179703,5.956733676,1.482937439
148879,1682211423,682695089,-0.488322035,5.956945473,1.482918875
148880,1682211423,693626715,-0.487459197,5.957216693,1.482948638
148881,1682211423,702142643,-0.486562945,5.957388348,1.482938421
148882,1682211423,713831074,-0.485753502,5.957587036,1.482889383
148883,1682211423,721843642,-0.484932693,5.957827758,1.482936914
148884,1682211423,731921871,-0.484079748,5.957910379,1.48282851
148885,1682211423,741993853,-0.483249303,5.958100549,1.482901987
148886,1682211423,752659017,-0.4823385,5.958335319,1.482843467
148887,1682211423,761883007,-0.481549689,5.958643226,1.482890656
148888,1682211423,771968278,-0.480744616,5.958791878,1.482797658
148889,1682211423,782187065,-0.479866573,5.958970809,1.482820373
148890,1682211423,791873963,-0.479034696,5.959169473,1.482863066
148891,1682211423,803692582,-0.478326685,5.959414181,1.482920577
148892,1682211423,811848501,-0.47751971,5.959671874,1.482993265
148893,1682211423,821843524,-0.476763037,5.95977348,1.48293848
148894,1682211423,832075098,-0.475974105,5.960018483,1.482940876
148895,1682211423,842082454,-0.475193194,5.960275023,1.48301301
148896,1682211423,852680807,-0.47437435,5.960421853,1.482984839
148897,1682211423,861976674,-0.473592704,5.960631842,1.483082777
148898,1682211423,872107191,-0.472817356,5.961086435,1.483343713
148899,1682211423,882224185,-0.472023135,5.961249568,1.48336316
148900,1682211423,892471566,-0.471223311,5.961350093,1.483177045
148901,1682211423,902402825,-0.470478103,5.961558876,1.483140541
148902,1682211423,912482758,-0.469710606,5.961718307,1.483212327
148903,1682211423,923746518,-0.468928359,5.961967925,1.483444119
148904,1682211423,932113559,-0.46814295,5.962186535,1.48346737
148905,1682211423,942144131,-0.467329915,5.96246409,1.483566948
148906,1682211423,952464340,-0.466572436,5.962725865,1.483623522
148907,1682211423,962815766,-0.465790403,5.962957427,1.483759136
148908,1682211423,972555497,-0.465020071,5.963156854,1.483861264
148909,1682211423,983057640,-0.464317449,5.963412871,1.484046129
148910,1682211423,992395193,-0.463528499,5.963607331,1.484150479
148911,1682211424,2671820,-0.462833227,5.963793699,1.484305567
148912,1682211424,12469679,-0.462057733,5.964105619,1.484403022
148913,1682211424,23270412,-0.461291569,5.964281181,1.484475451
148914,1682211424,32888903,-0.460553406,5.964589357,1.484669041
148915,1682211424,42886732,-0.459792617,5.964728145,1.484793677
148916,1682211424,52530002,-0.459064628,5.965042595,1.484997105
148917,1682211424,64412216,-0.458333563,5.96534269,1.485125427
148918,1682211424,72333220,-0.457628626,5.965633114,1.485240489
148919,1682211424,82821434,-0.456846115,5.965829414,1.485470595
148920,1682211424,92301706,-0.456069419,5.966054314,1.485631929
148921,1682211424,102284989,-0.455356069,5.966303318,1.485739592
148922,1682211424,114106913,-0.454713567,5.966642607,1.48591477
148923,1682211424,123585563,-0.453978059,5.966914939,1.486218924
148924,1682211424,132425844,-0.453244413,5.967127235,1.486315591
148925,1682211424,142344149,-0.452565346,5.967445509,1.486457964
148926,1682211424,153324515,-0.45178801,5.967728698,1.486639151
148927,1682211424,163528931,-0.451084538,5.96798857,1.486975779
148928,1682211424,172320134,-0.450272044,5.968099439,1.487070293
148929,1682211424,182249249,-0.449618141,5.968501029,1.487208758
148930,1682211424,192613975,-0.44896723,5.968832488,1.487417637
148931,1682211424,202636975,-0.448267386,5.9692386,1.487883326
148932,1682211424,212239342,-0.447539781,5.969400632,1.488051189
148933,1682211424,223218279,-0.446892888,5.969655544,1.488082252
148934,1682211424,232855024,-0.446195482,5.969968115,1.488212872
148935,1682211424,242309874,-0.445528255,5.970191975,1.488417469
148936,1682211424,253190974,-0.444781878,5.970555176,1.488697431
148937,1682211424,262457044,-0.444147482,5.970786363,1.488833085
148938,1682211424,272634799,-0.443429219,5.971130921,1.48905906
148939,1682211424,282263393,-0.442676113,5.97135439,1.489049211
148940,1682211424,292327296,-0.442064767,5.971691775,1.489418798
148941,1682211424,303872017,-0.441416605,5.972023101,1.489636799
148942,1682211424,312401023,-0.440743663,5.972365299,1.489728072
148943,1682211424,322630365,-0.440063865,5.972712892,1.489825125
148944,1682211424,332543040,-0.439417974,5.973031047,1.49000178
148945,1682211424,342139929,-0.438759868,5.973403279,1.490255744
148946,1682211424,352435322,-0.438063107,5.973682659,1.49026486
148947,1682211424,362374018,-0.437442045,5.974106228,1.490659862
148948,1682211424,372478433,-0.436775652,5.974447254,1.490737276
148949,1682211424,382299820,-0.436097213,5.974826219,1.490816708
148950,1682211424,394062920,-0.435491176,5.975156937,1.490850403
148951,1682211424,402292469,-0.434873722,5.975311996,1.490758029
148952,1682211424,412736728,-0.434198181,5.975603709,1.490828376
148953,1682211424,422495139,-0.433601929,5.976036185,1.490995247
148954,1682211424,433738606,-0.43296577,5.976395804,1.490985576
148955,1682211424,442149888,-0.432335865,5.976715908,1.491019558
148956,1682211424,452295257,-0.431660858,5.97708018,1.491040411
148957,1682211424,462815551,-0.431035738,5.977452406,1.491032303
148958,1682211424,472192548,-0.43044386,5.977804439,1.491052976
148959,1682211424,483937142,-0.429788286,5.978128704,1.491202028
148960,1682211424,492668954,-0.429135426,5.978514405,1.491202636
148961,1682211424,502318876,-0.428490366,5.978752975,1.491030489
148962,1682211424,512835592,-0.427874229,5.97921476,1.491037904
148963,1682211424,522527555,-0.427315225,5.979615842,1.491048745
148964,1682211424,533858132,-0.426684148,5.979940826,1.490987915
148965,1682211424,542863334,-0.426048804,5.9803877,1.491160913
148966,1682211424,552531334,-0.425459452,5.980593845,1.490940226
148967,1682211424,563468760,-0.424895794,5.980995686,1.491027405
148968,1682211424,572507785,-0.42426871,5.981552707,1.491203074
148969,1682211424,582451911,-0.423650251,5.981880035,1.491123053
148970,1682211424,592570623,-0.423031102,5.982107053,1.491161812
148971,1682211424,602770447,-0.422408149,5.982363547,1.49114509
148972,1682211424,612377804,-0.421832672,5.982825135,1.491204795
148973,1682211424,622746079,-0.421259414,5.983104117,1.491200865
148974,1682211424,633264817,-0.420606836,5.983508446,1.491371427
148975,1682211424,642467380,-0.420020964,5.983687538,1.49122337
148976,1682211424,652907510,-0.419441064,5.983921386,1.491218134
148977,1682211424,662517634,-0.418724974,5.984185458,1.491405513
148978,1682211424,672548106,-0.418180228,5.984729705,1.491936978
148979,1682211424,682372903,-0.417607372,5.98489329,1.491742185
148980,1682211424,693286686,-0.416971674,5.985199009,1.491791449
148981,1682211424,703721160,-0.416332224,5.985610668,1.49223443
148982,1682211424,712547807,-0.415716275,5.98579467,1.492434732
148983,1682211424,722452287,-0.415112375,5.986045424,1.492663826
148984,1682211424,732345748,-0.41451565,5.986297495,1.492816476
148985,1682211424,742408836,-0.413845049,5.986610368,1.493097696
148986,1682211424,752534768,-0.413221079,5.986780755,1.493301117
148987,1682211424,763821158,-0.412620678,5.987004097,1.493484324
148988,1682211424,773007554,-0.412028127,5.987063229,1.493529612
148989,1682211424,782157962,-0.411393396,5.987413579,1.494047553
148990,1682211424,792804801,-0.410771991,5.987480764,1.494158104
148991,1682211424,802444641,-0.410145757,5.987673011,1.494326815
148992,1682211424,812195986,-0.40950074,5.987987009,1.494768696
148993,1682211424,822997414,-0.408883535,5.988027434,1.494886222
148994,1682211424,833422455,-0.408184743,5.988290537,1.49527995
148995,1682211424,842362587,-0.407599927,5.988449637,1.495598756
148996,1682211424,852265234,-0.4069404,5.98860212,1.49585436
148997,1682211424,862863782,-0.406309984,5.988788644,1.496117726
148998,1682211424,872901585,-0.405662618,5.988922789,1.496323228
148999,1682211424,882595363,-0.405037164,5.988929417,1.496310872
149000,1682211424,892243400,-0.404369167,5.989031463,1.496539751
149001,1682211424,903318103,-0.403718831,5.989310269,1.49697216
149002,1682211424,912430804,-0.403056978,5.98943163,1.497092085
149003,1682211424,922219794,-0.402375946,5.989566456,1.497327816
149004,1682211424,932228963,-0.401735092,5.989697104,1.497519931
149005,1682211424,942591200,-0.401124615,5.989694668,1.497456065
149006,1682211424,952903613,-0.400311794,5.989882744,1.497704549
149007,1682211424,962755914,-0.399766105,5.989902821,1.497706239
149008,1682211424,972290219,-0.399100932,5.989992973,1.497825265
149009,1682211424,982261416,-0.398445554,5.990159266,1.497902257
149010,1682211424,992656153,-0.397799708,5.990319037,1.498125317
149011,1682211425,2505070,-0.397115679,5.990536565,1.498378762
149012,1682211425,12325933,-0.396433812,5.990745795,1.498420873
149013,1682211425,22441806,-0.395775659,5.990847571,1.498478161
149014,1682211425,32500812,-0.395124204,5.990823538,1.498590532
149015,1682211425,42317453,-0.394486617,5.990958284,1.498727717
149016,1682211425,52193105,-0.393833941,5.991112722,1.498777341
149017,1682211425,62521779,-0.393185844,5.99123315,1.498856935
149018,1682211425,73586275,-0.392540427,5.991200734,1.498706797
149019,1682211425,82478453,-0.391842989,5.991418333,1.498980638
149020,1682211425,92521216,-0.3912023,5.991571418,1.498995346
149021,1682211425,102553511,-0.390527319,5.991444776,1.498859038
149022,1682211425,113199000,-0.389898401,5.991820201,1.499120681
149023,1682211425,122959778,-0.389279655,5.991820885,1.498984261
149024,1682211425,134956436,-0.388658707,5.991944733,1.49897657
149025,1682211425,143026675,-0.387917216,5.992155554,1.499122839
149026,1682211425,153307826,-0.387365512,5.992320713,1.499228521
149027,1682211425,162762560,-0.386747131,5.992318424,1.49907504
149028,1682211425,172066610,-0.386122701,5.992499038,1.49903143
149029,1682211425,182549075,-0.385491448,5.992659622,1.499028257
149030,1682211425,192619755,-0.384875922,5.99282568,1.499026794
149031,1682211425,203331983,-0.384258885,5.993099252,1.499236927
149032,1682211425,212333500,-0.383667723,5.99310312,1.499060709
149033,1682211425,222141404,-0.383055729,5.993364949,1.499315297
149034,1682211425,232519014,-0.382402531,5.993519884,1.499223258
149035,1682211425,242191941,-0.381807736,5.993792015,1.499208392
149036,1682211425,252223972,-0.381280356,5.993811273,1.499035276
149037,1682211425,262367321,-0.380679517,5.993977504,1.499025447
149038,1682211425,272344101,-0.380078904,5.994272416,1.499300952
149039,1682211425,284263558,-0.379485678,5.994465429,1.499308493
149040,1682211425,292181035,-0.378919653,5.994691817,1.499234607
149041,1682211425,303417041,-0.378349236,5.994813918,1.499266663
149042,1682211425,314306269,-0.377783258,5.995109669,1.499329807
149043,1682211425,323424123,-0.377159877,5.995203532,1.49921452
149044,1682211425,332714601,-0.376586445,5.995433431,1.499282766
149045,1682211425,343234797,-0.376060165,5.995636849,1.499302145
149046,1682211425,353825519,-0.375544605,5.995837871,1.499332589
149047,1682211425,362576046,-0.374916427,5.996092879,1.499341842
149048,1682211425,373471816,-0.374430448,5.996288539,1.499357326
149049,1682211425,382508545,-0.373932263,5.99646782,1.499445427
149050,1682211425,393533366,-0.373380238,5.996674416,1.499326933
149051,1682211425,402629432,-0.372926455,5.996890959,1.49945108
149052,1682211425,412616555,-0.372429077,5.997118086,1.499478538
149053,1682211425,423753948,-0.371884321,5.997333208,1.499407988
149054,1682211425,432794655,-0.371425156,5.99762414,1.499454161
149055,1682211425,443171688,-0.370875886,5.997783991,1.499274674
149056,1682211425,452940661,-0.370419046,5.997989355,1.499363588
149057,1682211425,463728100,-0.369945478,5.998204563,1.499304251
149058,1682211425,472693713,-0.369498848,5.998430253,1.499245293
149059,1682211425,482100255,-0.369024818,5.998664774,1.499178431
149060,1682211425,492095630,-0.368533168,5.998914898,1.499105801
149061,1682211425,502315652,-0.368057056,5.999070864,1.499085233
149062,1682211425,514107021,-0.367687442,5.99937325,1.498958725
149063,1682211425,522516726,-0.367263861,5.999327911,1.498623918
149064,1682211425,531828155,-0.366823203,5.999697897,1.498730228
149065,1682211425,542623112,-0.366388761,6.000026685,1.498783007
149066,1682211425,555192209,-0.365910176,6.000250123,1.498682355
149067,1682211425,565397410,-0.365533366,6.000356021,1.498252169
149068,1682211425,572097959,-0.365020435,6.000647172,1.498299027
149069,1682211425,581483291,-0.364637177,6.000861099,1.498268999
149070,1682211425,592976392,-0.364244136,6.001112198,1.498157947
149071,1682211425,600907361,-0.363853158,6.001350402,1.498077442
149072,1682211425,612129209,-0.36348108,6.001662583,1.498018601
149073,1682211425,622341401,-0.363079836,6.001846155,1.497876329
149074,1682211425,634969159,-0.36267092,6.002108806,1.497863672
149075,1682211425,641593903,-0.362292459,6.002298405,1.497748624
149076,1682211425,651351565,-0.361884392,6.002502637,1.497628675
149077,1682211425,661030203,-0.361531936,6.002803696,1.497514296
149078,1682211425,671342568,-0.361140562,6.003127279,1.497405321
149079,1682211425,681065312,-0.360761908,6.003384863,1.497357269
149080,1682211425,695027178,-0.360416551,6.003589884,1.497308182
149081,1682211425,701721226,-0.360056637,6.003839238,1.497309747
149082,1682211425,711534865,-0.359625863,6.004049462,1.497111554
149083,1682211425,722536971,-0.35921034,6.004182899,1.497238078
149084,1682211425,731553568,-0.358826355,6.004465488,1.497158239
149085,1682211425,744427719,-0.358580187,6.004624657,1.496810659
149086,1682211425,752651934,-0.358198294,6.004975939,1.496881673
149087,1682211425,763812088,-0.357853704,6.005175898,1.496835285
149088,1682211425,772568771,-0.357474926,6.00538506,1.496911875
149089,1682211425,781644022,-0.357139707,6.005683174,1.496910781
149090,1682211425,794632137,-0.356812153,6.006125379,1.497196952
149091,1682211425,803530545,-0.356452589,6.006380867,1.497238662
149092,1682211425,811492754,-0.356134238,6.00664432,1.497197534
149093,1682211425,821653974,-0.355767848,6.006863247,1.497296764
149094,1682211425,832200859,-0.355378785,6.007119472,1.497346776
149095,1682211425,842142558,-0.355006341,6.00732569,1.497448402
149096,1682211425,852570655,-0.354708383,6.007545555,1.497498295
149097,1682211425,862792018,-0.354397244,6.007850982,1.497541507
149098,1682211425,874465000,-0.354016665,6.008060792,1.497628634
149099,1682211425,881975570,-0.353701018,6.008290019,1.497773117
149100,1682211425,891854711,-0.353355388,6.008455106,1.497822936
149101,1682211425,904734741,-0.353010697,6.008648817,1.497972871
149102,1682211425,912059784,-0.352657349,6.008884557,1.498029004
149103,1682211425,921791704,-0.352282678,6.009063042,1.498115243
149104,1682211425,931785715,-0.351927223,6.009290533,1.498118603
149105,1682211425,942076361,-0.35160244,6.009496869,1.498347497
149106,1682211425,952352442,-0.351215774,6.009518615,1.498293674
149107,1682211425,963889514,-0.350961834,6.009867148,1.498645039
149108,1682211425,973654466,-0.35059771,6.010029192,1.498731046
149109,1682211425,982288969,-0.35023472,6.010260918,1.498723607
149110,1682211425,992135113,-0.349805233,6.010211125,1.498561244
149111,1682211426,2841224,-0.349562316,6.010417738,1.498699416
149112,1682211426,12289000,-0.349212326,6.010533126,1.498753549
149113,1682211426,25376784,-0.348827319,6.010645591,1.498815477
149114,1682211426,33671527,-0.348545165,6.01088367,1.499043947
149115,1682211426,42355645,-0.34819156,6.011076963,1.499055324
149116,1682211426,53451017,-0.34785674,6.011268133,1.49912138
149117,1682211426,62379276,-0.347496948,6.011370572,1.499229588
149118,1682211426,75304931,-0.347166784,6.011483975,1.499322276
149119,1682211426,82439952,-0.346798389,6.011571829,1.49925242
149120,1682211426,92524468,-0.346474747,6.011736878,1.499430085
149121,1682211426,101662869,-0.346151405,6.01193237,1.499549373
149122,1682211426,111934014,-0.3457877,6.012035985,1.499531029
149123,1682211426,122525159,-0.345459375,6.012168173,1.499582214
149124,1682211426,131864414,-0.345101969,6.012216499,1.499534018
149125,1682211426,147722539,-0.34480736,6.012336105,1.499765147
149126,1682211426,152042479,-0.344468328,6.012483034,1.499707094
149127,1682211426,161820470,-0.344176456,6.01263782,1.499862006
149128,1682211426,171811716,-0.343833209,6.012733324,1.499915251
149129,1682211426,183839333,-0.343431381,6.012828143,1.499874989
149130,1682211426,193005381,-0.343108701,6.012924372,1.499977435
149131,1682211426,201842548,-0.34278588,6.013033514,1.499961168
149132,1682211426,212546497,-0.342453509,6.013089905,1.500006471
149133,1682211426,221521242,-0.342076962,6.013181862,1.49995118
149134,1682211426,232914709,-0.34176253,6.013307169,1.499957637
149135,1682211426,241462754,-0.341270959,6.013364307,1.499875928
149136,1682211426,251423084,-0.341034134,6.013459141,1.499973296
149137,1682211426,262058059,-0.340645185,6.01348387,1.499996391
149138,1682211426,272316731,-0.34020415,6.013534743,1.499847784
149139,1682211426,283193391,-0.339920436,6.013696127,1.499957544
149140,1682211426,292667106,-0.339482527,6.013690974,1.499863047
149141,1682211426,301512718,-0.339157966,6.013787903,1.499848999
149142,1682211426,312546820,-0.338770636,6.013790482,1.499825541
149143,1682211426,323638655,-0.338363731,6.013731163,1.499745679
149144,1682211426,331981020,-0.338063116,6.013997958,1.499995521
149145,1682211426,342532788,-0.337622694,6.013941975,1.499927638
149146,1682211426,353679067,-0.337244367,6.014225844,1.50016596
149147,1682211426,361450248,-0.336875696,6.01424439,1.500255095
149148,1682211426,389193787,-0.336289784,6.014271909,1.500392118
149149,1682211426,391323279,-0.335875497,6.014248662,1.500367556
149150,1682211426,408642315,-0.335511801,6.014307179,1.500463469
149151,1682211426,411782907,-0.335224518,6.014532237,1.500966846
149152,1682211426,420862969,-0.334726203,6.014543327,1.500780548
149153,1682211426,431207961,-0.334456326,6.014469218,1.500721559
149154,1682211426,440816477,-0.334060345,6.014454676,1.500978569
149155,1682211426,451288398,-0.333726931,6.014473083,1.501148118
149156,1682211426,461262990,-0.333397822,6.014498004,1.501386821
149157,1682211426,473588437,-0.333075784,6.014686447,1.501645032
149158,1682211426,482167646,-0.332727155,6.01467517,1.501803184
149159,1682211426,492394076,-0.332399457,6.014654863,1.501989375
149160,1682211426,504202654,-0.33214208,6.014567955,1.501970277
149161,1682211426,512991070,-0.331729314,6.014686809,1.502313269
149162,1682211426,521398269,-0.331484162,6.014714021,1.502584293
149163,1682211426,531824986,-0.331055772,6.01460665,1.502659912
149164,1682211426,541372784,-0.330743699,6.014617064,1.502813013
149165,1682211426,552461390,-0.330611706,6.014743441,1.50308435
149166,1682211426,562308576,-0.330336942,6.014680908,1.503288694
149167,1682211426,571189174,-0.33006625,6.014687531,1.503504062
149168,1682211426,581808255,-0.329820313,6.01470071,1.503715812
149169,1682211426,591778055,-0.329525046,6.014671051,1.503839737
149170,1682211426,602894002,-0.329292552,6.014695306,1.504108046
149171,1682211426,612232716,-0.329015817,6.014697232,1.504306437
149172,1682211426,622455372,-0.328785429,6.014712803,1.504467875
149173,1682211426,633022126,-0.328524651,6.014712035,1.504739046
149174,1682211426,643829356,-0.328218808,6.014572903,1.50485505
149175,1682211426,652673303,-0.328045689,6.014609887,1.505051674
149176,1682211426,662532628,-0.327525981,6.014343631,1.505016746
149177,1682211426,672379658,-0.327373758,6.014475991,1.505451507
149178,1682211426,682809689,-0.327232942,6.014464329,1.505722393
149179,1682211426,692369066,-0.327033322,6.014411662,1.505843238
149180,1682211426,703712750,-0.32678917,6.014358454,1.505985406
149181,1682211426,716038300,-0.326618278,6.014383714,1.506212488
149182,1682211426,722208166,-0.326429247,6.014486921,1.506433706
149183,1682211426,732396408,-0.326322409,6.014512459,1.506533489
149184,1682211426,742684758,-0.326412136,6.014745097,1.506795763
149185,1682211426,753719653,-0.326251864,6.01471076,1.506976674
149186,1682211426,762237852,-0.326093657,6.014547271,1.506879927
149187,1682211426,774527365,-0.32593911,6.014714249,1.507185506
149188,1682211426,782399871,-0.325776411,6.014581677,1.507191731
149189,1682211426,794518785,-0.325608117,6.014725322,1.507529381
149190,1682211426,802404017,-0.32546629,6.01474455,1.507635157
149191,1682211426,812214731,-0.325332589,6.014762446,1.507716342
149192,1682211426,822183319,-0.325204142,6.014745485,1.507892168
149193,1682211426,833283952,-0.325048173,6.01476892,1.508071579
149194,1682211426,842052941,-0.324916565,6.014797527,1.508149425
149195,1682211426,854328175,-0.324798602,6.014843428,1.508243136
149196,1682211426,862326888,-0.324638587,6.014853261,1.508377499
149197,1682211426,873728149,-0.324476424,6.014806194,1.508533237
149198,1682211426,882885746,-0.324159268,6.014530461,1.508453414
149199,1682211426,892867245,-0.324045768,6.014604655,1.508531574
149200,1682211426,902279047,-0.323926168,6.01467769,1.508604972
149201,1682211426,914060723,-0.323809924,6.014753814,1.508628991
149202,1682211426,922387656,-0.323695437,6.01478866,1.508676127
149203,1682211426,932387971,-0.32359198,6.014923274,1.508758998
149204,1682211426,942365975,-0.323502689,6.015028704,1.508771372
149205,1682211426,952584158,-0.323370388,6.015243923,1.508935262
149206,1682211426,962392038,-0.323344395,6.015234844,1.508667124
149207,1682211426,972558723,-0.323262026,6.015411466,1.508727015
149208,1682211426,982439055,-0.323169321,6.015491725,1.508592649
149209,1682211426,992637147,-0.323083395,6.015625526,1.508516239
149210,1682211427,2596977,-0.32300693,6.015877813,1.508632762
149211,1682211427,12550468,-0.322983371,6.015936043,1.508360874
149212,1682211427,22252287,-0.323108217,6.016308365,1.508285528
149213,1682211427,34036201,-0.323056877,6.016532684,1.508185242
149214,1682211427,42098319,-0.323032012,6.016733752,1.508077666
149215,1682211427,52070710,-0.322985151,6.017098379,1.508147972
149216,1682211427,62430187,-0.322958775,6.017263001,1.508061362
149217,1682211427,73096981,-0.322965846,6.017520893,1.507988299
149218,1682211427,82352185,-0.322951054,6.017631885,1.507696546
149219,1682211427,91981452,-0.322928514,6.017932553,1.50756784
149220,1682211427,101843666,-0.322701594,6.018003923,1.507434442
149221,1682211427,112088876,-0.322903657,6.018600403,1.50731767
149222,1682211427,121941768,-0.322683101,6.018753397,1.507210491
149223,1682211427,132085299,-0.322697448,6.019158016,1.507060178
149224,1682211427,142256419,-0.322620299,6.019520277,1.506913859
149225,1682211427,151953520,-0.322755887,6.020039891,1.506753303
149226,1682211427,162336816,-0.322775527,6.020511554,1.506554892
149227,1682211427,172099416,-0.322815244,6.021009096,1.506397166
149228,1682211427,182081268,-0.322850854,6.021525005,1.506173999
149229,1682211427,192269599,-0.322916705,6.022040682,1.505964833
149230,1682211427,202959175,-0.322966986,6.022619243,1.505723766
149231,1682211427,212357453,-0.323268666,6.023598999,1.505479041
149232,1682211427,222586357,-0.323338429,6.024206436,1.505037794
149233,1682211427,232871355,-0.32341078,6.024983226,1.50476582
149234,1682211427,242300936,-0.3234015,6.025660291,1.504257296
149235,1682211427,252523464,-0.323514158,6.026416144,1.50394057
149236,1682211427,262590298,-0.323630152,6.027286613,1.503591413
149237,1682211427,272226399,-0.323688699,6.028161363,1.503234052
149238,1682211427,282380986,-0.323864914,6.029257929,1.502982071
149239,1682211427,294868583,-0.324091847,6.030354808,1.502526674
149240,1682211427,302606415,-0.324269102,6.031395655,1.502327195
149241,1682211427,312601719,-0.32449207,6.032651862,1.502076556
149242,1682211427,322721075,-0.324669718,6.033877549,1.501802041
149243,1682211427,332737660,-0.324847618,6.035076351,1.501364155
149244,1682211427,342628642,-0.324948123,6.036324736,1.500943515
149245,1682211427,355227942,-0.325201572,6.037713366,1.500576244
149246,1682211427,363266977,-0.325393413,6.039077958,1.50021073
149247,1682211427,374026864,-0.325573687,6.040489663,1.499864896
149248,1682211427,382557878,-0.325775069,6.041966931,1.499443576
149249,1682211427,392646716,-0.32598958,6.043557452,1.499118723
149250,1682211427,402399617,-0.326169969,6.045118534,1.498752082
149251,1682211427,412530733,-0.326392181,6.046800913,1.498349549
149252,1682211427,422491112,-0.326579348,6.048330476,1.49796615
149253,1682211427,432374206,-0.32680878,6.049995048,1.497708346
149254,1682211427,442137812,-0.327003332,6.051655291,1.497435082
149255,1682211427,452845818,-0.32720652,6.053441005,1.49713731
149256,1682211427,464139535,-0.327387692,6.055193077,1.496726684
149257,1682211427,473440684,-0.32763452,6.057039166,1.496477672
149258,1682211427,484052943,-0.327810364,6.058782643,1.496183572
149259,1682211427,492659012,-0.328006286,6.060588413,1.495925109
149260,1682211427,502388507,-0.328177136,6.062487437,1.495653362
149261,1682211427,512206192,-0.328405938,6.064366058,1.495405702
149262,1682211427,522524483,-0.328590824,6.066277489,1.495210331
149263,1682211427,532391181,-0.328770878,6.068133905,1.494950962
149264,1682211427,542148726,-0.328934506,6.069984996,1.494705638
149265,1682211427,552775440,-0.329092784,6.071859995,1.49453764
149266,1682211427,562299919,-0.329198316,6.073642856,1.494342904
149267,1682211427,572104348,-0.329478318,6.075571372,1.494184953
149268,1682211427,582412100,-0.329492435,6.077508581,1.493962558
149269,1682211427,594177483,-0.329641701,6.079513922,1.493883782
149270,1682211427,602865919,-0.329734514,6.081175948,1.493616261
149271,1682211427,612373317,-0.329851773,6.082966775,1.493454791
149272,1682211427,622330893,-0.329919412,6.084831238,1.493365652
149273,1682211427,632358499,-0.330022361,6.086696467,1.493231194
149274,1682211427,642382978,-0.330058249,6.08846,1.493103092
149275,1682211427,652412261,-0.330149636,6.090268522,1.493006055
149276,1682211427,663443151,-0.330215995,6.092093497,1.492991395
149277,1682211427,674481558,-0.330229118,6.093750455,1.492845554
149278,1682211427,682259770,-0.33029265,6.0955244,1.492939456
149279,1682211427,692816386,-0.330263759,6.097148124,1.492706427
149280,1682211427,702466004,-0.330269434,6.098889077,1.492670731
149281,1682211427,712438817,-0.330259972,6.100528452,1.492571465
149282,1682211427,723068006,-0.330241066,6.102155333,1.492581198
149283,1682211427,732845711,-0.330197372,6.103735172,1.492553927
149284,1682211427,743134306,-0.330210535,6.105321996,1.492574121
149285,1682211427,752345532,-0.330151344,6.106877427,1.492597997
149286,1682211427,762664619,-0.330085695,6.108403677,1.492580349
149287,1682211427,773965650,-0.330018808,6.109908077,1.492550568
149288,1682211427,782313905,-0.32998258,6.111440622,1.492659605
149289,1682211427,792411362,-0.329891659,6.112850679,1.49264777
149290,1682211427,802130230,-0.329823346,6.114323707,1.492720334
149291,1682211427,812654593,-0.329642994,6.115650974,1.492728341
149292,1682211427,822465948,-0.329549727,6.117062826,1.49278141
149293,1682211427,832059837,-0.329488175,6.118546495,1.492843552
149294,1682211427,842431943,-0.329432604,6.119782929,1.492889077
149295,1682211427,852426896,-0.329277606,6.12113972,1.49298835
149296,1682211427,862754181,-0.329136766,6.122441709,1.492987149
149297,1682211427,872323170,-0.328979022,6.123669353,1.493065109
149298,1682211427,882645951,-0.328847288,6.124947179,1.493071558
149299,1682211427,892527893,-0.328696741,6.126225438,1.493069349
149300,1682211427,902293099,-0.3285309,6.127401676,1.493099496
149301,1682211427,912364584,-0.328359292,6.1286315,1.493087482
149302,1682211427,922282784,-0.328186353,6.129759752,1.493127026
149303,1682211427,932560519,-0.32793388,6.130814853,1.493070091
149304,1682211427,943875620,-0.327806614,6.132007331,1.493152515
149305,1682211427,952305293,-0.327590028,6.133105599,1.49303108
149306,1682211427,962393632,-0.327400079,6.134251713,1.49290616
149307,1682211427,972594952,-0.327187272,6.135289514,1.492862365
149308,1682211427,982387725,-0.326946525,6.136310035,1.492871404
149309,1682211427,992490858,-0.326750953,6.137329215,1.492713213
149310,1682211428,2743555,-0.326556148,6.138339097,1.492524885
149311,1682211428,12676339,-0.326303921,6.139397726,1.492405551
149312,1682211428,22676929,-0.32609024,6.140357569,1.492258967
149313,1682211428,32462522,-0.325847782,6.141307928,1.492058811
149314,1682211428,42950615,-0.32561123,6.142234128,1.4918575
