.header.seq,.header.stamp.secs,.header.stamp.nsecs,.transform.translation.x,.transform.translation.y,.transform.translation.z
148344,1682211418,802088121,-0.831942701,7.166450052,0.265219175
148345,1682211418,812890318,-0.831918443,7.166403121,0.265318179
148346,1682211418,826438437,-0.832077624,7.16649203,0.265216638
148347,1682211418,832342958,-0.832069595,7.16650197,0.265191703
148348,1682211418,842702917,-0.831926918,7.166483398,0.265212425
148349,1682211418,852587761,-0.832162106,7.166551921,0.265056827
148350,1682211418,862111200,-0.832055679,7.166472673,0.265195404
148351,1682211418,872383639,-0.83203496,7.166418515,0.265231804
148352,1682211418,882203748,-0.832167929,7.166497537,0.265099105
148353,1682211418,893441620,-0.832033493,7.166476942,0.265177675
148354,1682211418,902809385,-0.832177812,7.166588346,0.265056879
148355,1682211418,911932556,-0.832068391,7.166499862,0.265176275
148356,1682211418,922469973,-0.832168347,7.166499216,0.265079558
148357,1682211418,933198285,-0.83193234,7.166384851,0.265308531
148358,1682211418,942217717,-0.832164468,7.166505917,0.265113238
148359,1682211418,952347352,-0.832049936,7.166474917,0.265216243
148360,1682211418,962248225,-0.832165168,7.166566825,0.265074173
148361,1682211418,972228123,-0.832028678,7.166531767,0.265145825
148362,1682211418,983232958,-0.83203069,7.166503171,0.26515647
148363,1682211418,992310688,-0.832060649,7.166471866,0.26516724
148364,1682211419,2292008,-0.832034275,7.166435162,0.265220362
148365,1682211419,12635484,-0.832049512,7.166504417,0.265206744
148366,1682211419,22578825,-0.832070048,7.166542502,0.265177264
148367,1682211419,33596740,-0.832052059,7.166533714,0.265115953
148368,1682211419,42399475,-0.832179693,7.16656889,0.265034103
148369,1682211419,52698197,-0.832190138,7.166549432,0.265067303
148370,1682211419,63971272,-0.832178876,7.166524749,0.265083325
148371,1682211419,72352680,-0.832022034,7.166476405,0.265173235
148372,1682211419,83459841,-0.831928444,7.166453324,0.265279066
148373,1682211419,94523965,-0.832181118,7.166593014,0.265035034
148374,1682211419,103864375,-0.832170806,7.166559615,0.265051188
148375,1682211419,113814590,-0.832073627,7.166492875,0.265167762
148376,1682211419,122649288,-0.832031608,7.166504274,0.26517577
148377,1682211419,132561427,-0.83217941,7.166559044,0.265104218
148378,1682211419,142614224,-0.832191706,7.166592908,0.265029988
148379,1682211419,152713750,-0.832079263,7.166539047,0.265149081
148380,1682211419,162479074,-0.832042162,7.166550594,0.265144898
148381,1682211419,172488693,-0.832178811,7.166575668,0.265045193
148382,1682211419,182972750,-0.831917641,7.166414085,0.265263318
148383,1682211419,192909872,-0.832056658,7.166498298,0.2652038
148384,1682211419,202625914,-0.832033031,7.166521063,0.265199833
148385,1682211419,212835606,-0.83203997,7.166562237,0.265138571
148386,1682211419,222536089,-0.832046254,7.166544489,0.26512713
148387,1682211419,232561685,-0.831917307,7.166465869,0.265258958
148388,1682211419,242953952,-0.832159565,7.166554732,0.265094321
148389,1682211419,252365879,-0.832065126,7.166492462,0.265215494
148390,1682211419,262913535,-0.831923411,7.166460306,0.265313068
148391,1682211419,273444130,-0.832069673,7.166550876,0.265187987
148392,1682211419,283437048,-0.832171262,7.166572405,0.265028245
148393,1682211419,292707812,-0.832014395,7.166487347,0.265125659
148394,1682211419,302800784,-0.832049872,7.166456794,0.265211429
148395,1682211419,312492115,-0.832051348,7.166459757,0.26520325
148396,1682211419,322932517,-0.832020455,7.166484955,0.265197501
148397,1682211419,332462631,-0.832045143,7.166541265,0.265169522
148398,1682211419,342470828,-0.832199395,7.166604295,0.265041741
148399,1682211419,354909244,-0.832059503,7.166481469,0.265188
148400,1682211419,362583825,-0.832062211,7.16646711,0.265194818
148401,1682211419,372716048,-0.832053962,7.166457123,0.265220518
148402,1682211419,382305985,-0.832049795,7.166465396,0.265231501
148403,1682211419,392417026,-0.832041095,7.166494937,0.265182015
148404,1682211419,403322585,-0.832002934,7.166521323,0.265143804
148405,1682211419,412153130,-0.832001724,7.166507632,0.265125179
148406,1682211419,423346034,-0.831904159,7.166418471,0.265265572
148407,1682211419,432299220,-0.832042573,7.166451398,0.265190794
148408,1682211419,442160973,-0.832062738,7.16648257,0.265194946
148409,1682211419,452332572,-0.832065187,7.166535747,0.265194104
148410,1682211419,462357360,-0.832064782,7.166550216,0.265183848
148411,1682211419,472388568,-0.832080971,7.166544618,0.265154351
148412,1682211419,482660690,-0.832169131,7.166573843,0.265023473
148413,1682211419,493862944,-0.832166456,7.166538607,0.265074926
148414,1682211419,502339443,-0.832067195,7.166514117,0.265191965
148415,1682211419,512289733,-0.832049727,7.166545431,0.265214746
148416,1682211419,523072883,-0.832064539,7.166575804,0.26515
148417,1682211419,532684783,-0.832075109,7.166576978,0.26512441
148418,1682211419,542484328,-0.832051583,7.166550929,0.265120584
148419,1682211419,552320608,-0.832195795,7.166561788,0.265071608
148420,1682211419,562816124,-0.832088532,7.166505703,0.265222832
148421,1682211419,572267997,-0.83207713,7.166522842,0.265211132
148422,1682211419,582629316,-0.832068119,7.166580874,0.265145113
148423,1682211419,592851331,-0.83195561,7.166512861,0.265190155
148424,1682211419,602286682,-0.832067188,7.166523473,0.26514155
148425,1682211419,612740433,-0.832067105,7.166492552,0.26521363
148426,1682211419,622481851,-0.832062253,7.166508799,0.265230146
148427,1682211419,632491310,-0.831927405,7.166469993,0.265323571
148428,1682211419,642440305,-0.832075465,7.166580689,0.26511783
148429,1682211419,652483927,-0.832175324,7.166641403,0.2649774
148430,1682211419,662763058,-0.831922105,7.166502443,0.265183182
148431,1682211419,672226313,-0.832031701,7.166476759,0.265202243
148432,1682211419,682637093,-0.831907173,7.166423125,0.265324503
148433,1682211419,692471344,-0.832006352,7.166510624,0.265200221
148434,1682211419,702492695,-0.831923146,7.166519223,0.265240808
148435,1682211419,712492838,-0.832076989,7.166603835,0.265111331
148436,1682211419,722415909,-0.832057184,7.166559328,0.265169548
148437,1682211419,733047592,-0.832077395,7.166520763,0.265208138
148438,1682211419,742419481,-0.832072182,7.166491359,0.265211479
148439,1682211419,753460798,-0.832076551,7.166525763,0.265195687
148440,1682211419,764247673,-0.832183713,7.166639486,0.265037625
148441,1682211419,783490106,-0.832044825,7.166534838,0.265118408
148442,1682211419,793700096,-0.831904628,7.166460145,0.265263273
148443,1682211419,803171288,-0.832160036,7.166541783,0.265103923
148444,1682211419,812889057,-0.831911034,7.166467207,0.265308812
148445,1682211419,842588169,-0.832105938,7.166622333,0.265115268
148446,1682211419,852392413,-0.831962395,7.166544539,0.265230464
148447,1682211419,861999522,-0.832090574,7.166536036,0.265217409
148448,1682211419,872140692,-0.83206718,7.166557124,0.26523329
148449,1682211419,886601566,-0.832075455,7.166606637,0.265185499
148450,1682211419,903498004,-0.832037694,7.166627929,0.265094605
148451,1682211419,911756192,-0.831943184,7.16649825,0.265236279
148452,1682211419,922936694,-0.832085527,7.166524827,0.265216977
148453,1682211419,951231909,-0.832123271,7.166634585,0.265123588
148454,1682211419,960854265,-0.832247324,7.166679417,0.264995669
148455,1682211419,970346266,-0.832220802,7.166639359,0.265052184
148456,1682211419,980896122,-0.832067353,7.166506126,0.265279554
148457,1682211419,991927838,-0.832048823,7.166521333,0.265237477
148458,1682211420,368841,-0.832021546,7.166550364,0.265222393
148459,1682211420,10225254,-0.831889231,7.166568479,0.265252714
148460,1682211420,22261789,-0.832043467,7.166638045,0.265120866
148461,1682211420,31257744,-0.831929708,7.166546815,0.26525281
148462,1682211420,41055602,-0.832065372,7.166537735,0.26526278
148463,1682211420,50960641,-0.832078903,7.166534511,0.265270646
148464,1682211420,62431680,-0.832109522,7.166586752,0.265167709
148465,1682211420,71445959,-0.832111608,7.166665539,0.265105515
148466,1682211420,81474782,-0.832118973,7.166668795,0.265139782
148467,1682211420,91952332,-0.83208147,7.166608473,0.265172375
148468,1682211420,102396627,-0.832050501,7.166532347,0.265206149
148469,1682211420,112606322,-0.832041802,7.166520606,0.265232509
148470,1682211420,122191819,-0.832032734,7.16654297,0.265212605
148471,1682211420,134178592,-0.832042276,7.166573059,0.26515497
148472,1682211420,146126823,-0.83206633,7.166613123,0.265120538
148473,1682211420,152260943,-0.832104965,7.166595336,0.265154427
148474,1682211420,162930127,-0.832237788,7.166630225,0.265045399
148475,1682211420,172806073,-0.832119145,7.166541547,0.265207091
148476,1682211420,184835813,-0.832130067,7.166575433,0.265215923
148477,1682211420,192744025,-0.83211648,7.16662982,0.26517964
148478,1682211420,203547523,-0.832096501,7.166645478,0.265099329
148479,1682211420,212961256,-0.832027383,7.166602237,0.265076369
148480,1682211420,223715672,-0.831975908,7.166552857,0.265143628
148481,1682211420,233817685,-0.831998635,7.166498942,0.265240059
148482,1682211420,242398051,-0.831984191,7.166502307,0.265229829
148483,1682211420,252179323,-0.83203967,7.166585204,0.26517697
148484,1682211420,262377340,-0.831962417,7.16660941,0.265193883
148485,1682211420,272380387,-0.83198025,7.16659184,0.265188904
148486,1682211420,282187553,-0.832134325,7.166601712,0.265164635
148487,1682211420,292483251,-0.832171686,7.166614367,0.265196356
148488,1682211420,303546865,-0.832152475,7.166613418,0.265216488
148489,1682211420,312385086,-0.832176108,7.16663727,0.265123549
148490,1682211420,322392079,-0.83206405,7.166636123,0.265127446
148491,1682211420,332477087,-0.832081443,7.16660441,0.265146416
148492,1682211420,343202446,-0.832028545,7.166549384,0.265156427
148493,1682211420,353153524,-0.832113071,7.166563039,0.265058818
148494,1682211420,362466353,-0.832013643,7.166529771,0.26519219
148495,1682211420,372423780,-0.832147789,7.166668348,0.265112225
148496,1682211420,383217619,-0.832149325,7.16670573,0.265095436
148497,1682211420,395005193,-0.832102503,7.166662938,0.265124824
148498,1682211420,402665125,-0.832232733,7.166693117,0.265008679
148499,1682211420,412364627,-0.832061671,7.166524363,0.265312755
148500,1682211420,423892967,-0.832103408,7.166567609,0.265138763
148501,1682211420,432382667,-0.83220261,7.166632477,0.265063537
148502,1682211420,442529540,-0.83217694,7.166671086,0.265020421
148503,1682211420,452842538,-0.832139819,7.166695668,0.264937574
148504,1682211420,463277217,-0.831991372,7.166561498,0.26510274
148505,1682211420,472659851,-0.832128175,7.166608209,0.265058833
148506,1682211420,482728751,-0.8321661,7.166638093,0.265087835
148507,1682211420,492273198,-0.832229111,7.166697821,0.265021452
148508,1682211420,503687242,-0.832201254,7.166684003,0.26502279
148509,1682211420,511963073,-0.83224559,7.166756432,0.264980635
148510,1682211420,522244202,-0.832275055,7.166731689,0.264969932
148511,1682211420,533204742,-0.832337858,7.16665812,0.2649318
148512,1682211420,542206085,-0.832487903,7.166679076,0.264832681
148513,1682211420,552401202,-0.832487552,7.166705377,0.26480572
148514,1682211420,563468923,-0.832334113,7.166737144,0.264860045
148515,1682211420,572056229,-0.832326061,7.166770678,0.264848963
148516,1682211420,582870488,-0.832190275,7.166655938,0.264991011
148517,1682211420,592425307,-0.832213232,7.166648948,0.265022568
148518,1682211420,602273664,-0.832074703,7.166575312,0.265148558
148519,1682211420,612127260,-0.832166033,7.166630234,0.265093059
148520,1682211420,621974150,-0.832308937,7.166662532,0.264984772
148521,1682211420,631933012,-0.832314267,7.166702941,0.264956932
148522,1682211420,642025977,-0.832292889,7.16665081,0.264977484
148523,1682211420,652137997,-0.832269679,7.166586734,0.265025465
148524,1682211420,662456972,-0.832344465,7.166622857,0.264949822
148525,1682211420,672310882,-0.832326459,7.166618407,0.265009802
148526,1682211420,682809547,-0.832074924,7.166627606,0.265087925
148527,1682211420,692351728,-0.832096891,7.166640244,0.265094274
148528,1682211420,702184758,-0.832044754,7.166654001,0.265075792
148529,1682211420,712143399,-0.832095744,7.166622648,0.265149836
148530,1682211420,722550500,-0.832097112,7.1665866,0.265196953
148531,1682211420,733122663,-0.832102076,7.166564166,0.265191095
148532,1682211420,742452015,-0.832104588,7.166610844,0.265154721
148533,1682211420,752359998,-0.832358082,7.166777926,0.26488521
148534,1682211420,762192993,-0.832351864,7.166781292,0.264809465
148535,1682211420,773683473,-0.832119634,7.166649387,0.265000825
148536,1682211420,784031622,-0.83217257,7.166631183,0.265054293
148537,1682211420,792542015,-0.832171913,7.166657566,0.265095558
148538,1682211420,812487117,-0.832166211,7.166662063,0.265026175
148539,1682211420,832948344,-0.831981339,7.166538325,0.265103454
148540,1682211420,843123541,-0.831985443,7.166468931,0.265170683
148541,1682211420,853720940,-0.832100371,7.166506632,0.265181385
148542,1682211420,865519117,-0.832085861,7.166527731,0.265243998
148543,1682211420,882594729,-0.832199754,7.166588801,0.264986027
148544,1682211420,892306229,-0.832204285,7.166609927,0.265009105
148545,1682211420,903171308,-0.832009861,7.16655856,0.265200084
148546,1682211420,911093674,-0.831987747,7.166540239,0.265187196
148547,1682211420,921812508,-0.83213536,7.166622599,0.265049881
148548,1682211420,932652872,-0.831919498,7.166588628,0.265229442
148549,1682211420,942980628,-0.832167729,7.166707643,0.264959806
148550,1682211420,971624283,-0.832081814,7.166510679,0.265161621
148551,1682211420,982254181,-0.832043896,7.166533308,0.265183523
148552,1682211420,990510853,-0.831914343,7.166544185,0.265233974
148553,1682211421,863829,-0.83191708,7.166586044,0.26519489
148554,1682211421,11333821,-0.83204873,7.16665713,0.265126185
148555,1682211421,22593405,-0.832058414,7.166618894,0.265139731
148556,1682211421,31484990,-0.83206982,7.166577506,0.265163355
148557,1682211421,41592536,-0.832095976,7.166587916,0.265163612
148558,1682211421,50841175,-0.832100943,7.166593151,0.265164807
148559,1682211421,61482683,-0.832116522,7.166654562,0.265142903
148560,1682211421,71918265,-0.832130501,7.166631092,0.265117303
148561,1682211421,81977227,-0.832134033,7.166624758,0.265101589
148562,1682211421,94137463,-0.832115617,7.166583858,0.265180272
148563,1682211421,102389401,-0.832098091,7.166575043,0.265206414
148564,1682211421,111996551,-0.832079844,7.166607745,0.265188814
148565,1682211421,122498223,-0.832131317,7.166658358,0.26509365
148566,1682211421,132646993,-0.832211445,7.166718737,0.264975804
148567,1682211421,142659157,-0.832208806,7.166646529,0.265000106
148568,1682211421,152198778,-0.832069666,7.166546771,0.2651223
148569,1682211421,162166532,-0.83232896,7.166685991,0.264934196
148570,1682211421,172216231,-0.832238711,7.166658876,0.265060407
148571,1682211421,183280450,-0.832314551,7.166766092,0.264911606
148572,1682211421,192505198,-0.832067883,7.166658412,0.265036546
148573,1682211421,202527129,-0.831955852,7.166567913,0.265156125
148574,1682211421,212400007,-0.832056859,7.166591419,0.265179388
148575,1682211421,222859549,-0.831920699,7.166527273,0.265307451
148576,1682211421,233828065,-0.83206761,7.166600201,0.265180342
148577,1682211421,242265977,-0.831927506,7.166547122,0.265222611
148578,1682211421,253725570,-0.832194208,7.16664726,0.264989808
148579,1682211421,262551165,-0.832086101,7.166578676,0.265101145
148580,1682211421,273657713,-0.832045629,7.16650367,0.265105365
148581,1682211421,282316048,-0.832062653,7.16654838,0.2651527
148582,1682211421,293664259,-0.831991702,7.16653385,0.265193232
148583,1682211421,302578293,-0.832143023,7.166637327,0.2650047
148584,1682211421,312685310,-0.832327214,7.166768616,0.26483453
148585,1682211421,322253576,-0.832246119,7.166725205,0.264938045
148586,1682211421,332637497,-0.832099276,7.166565832,0.26510394
148587,1682211421,342470574,-0.832076507,7.166542245,0.265176407
148588,1682211421,353468448,-0.832079498,7.166533288,0.265220109
148589,1682211421,362476271,-0.832078737,7.166572396,0.265194175
148590,1682211421,372657493,-0.831944565,7.166536306,0.265208246
148591,1682211421,383111101,-0.832054348,7.166552612,0.265134216
148592,1682211421,392246051,-0.832087075,7.166571601,0.26513831
148593,1682211421,402685073,-0.832024276,7.166522598,0.265120744
148594,1682211421,412737310,-0.832145016,7.166596476,0.265041409
148595,1682211421,422907692,-0.832028032,7.166575001,0.26517618
148596,1682211421,432865397,-0.832026899,7.166620705,0.265153985
148597,1682211421,442467580,-0.83200087,7.166619403,0.265090566
148598,1682211421,453707436,-0.832278983,7.166696393,0.264893507
148599,1682211421,464129824,-0.832145165,7.166639915,0.265001047
148600,1682211421,472578794,-0.832119545,7.166540606,0.265219268
148601,1682211421,483035475,-0.83211704,7.166574283,0.265204735
148602,1682211421,492634817,-0.832110047,7.166604035,0.265162094
148603,1682211421,502736041,-0.832057711,7.166602012,0.265201622
148604,1682211421,513646599,-0.832232311,7.166585062,0.265043953
148605,1682211421,522475520,-0.832531587,7.166807909,0.264833027
148606,1682211421,532482741,-0.832243178,7.166605245,0.265153037
148607,1682211421,542621267,-0.832066976,7.166551848,0.265179965
148608,1682211421,552470390,-0.831994428,7.166537718,0.265095185
148609,1682211421,562621897,-0.832128871,7.166647761,0.264996393
148610,1682211421,572858605,-0.832177263,7.166585163,0.265041924
148611,1682211421,583943835,-0.832299917,7.166632488,0.264978003
148612,1682211421,592576803,-0.832169438,7.166528792,0.265137246
148613,1682211421,602666107,-0.831917694,7.166427051,0.265251709
148614,1682211421,613328002,-0.832300064,7.1667155,0.264886546
148615,1682211421,623540089,-0.832161582,7.166643143,0.26500753
148616,1682211421,632790257,-0.831906485,7.166432271,0.265201161
148617,1682211421,642506579,-0.831960915,7.166506445,0.265257532
148618,1682211421,652870712,-0.8320328,7.166489373,0.265240003
148619,1682211421,662868817,-0.831985513,7.166534149,0.265234471
148620,1682211421,672358720,-0.832069768,7.166564453,0.265139809
148621,1682211421,683059167,-0.831932148,7.166561047,0.265276027
148622,1682211421,692686484,-0.83216587,7.16665267,0.26503267
148623,1682211421,702943742,-0.832176166,7.166560985,0.265090387
148624,1682211421,712623918,-0.832000417,7.166466691,0.265263334
148625,1682211421,722346598,-0.832149479,7.166555789,0.265070539
148626,1682211421,732672894,-0.83215313,7.166609302,0.265056119
148627,1682211421,743411606,-0.831936008,7.166481303,0.265009934
148628,1682211421,752777716,-0.832169124,7.166597937,0.265042687
148629,1682211421,762988461,-0.832057014,7.166419234,0.265135008
148630,1682211421,772261276,-0.832192703,7.166543578,0.265145899
148631,1682211421,783138718,-0.832303446,7.166613441,0.265072258
148632,1682211421,792393010,-0.832199458,7.166604707,0.265034447
148633,1682211421,802702025,-0.832275272,7.166632065,0.264806452
148634,1682211421,813621101,-0.83233762,7.166736059,0.264832158
148635,1682211421,823208686,-0.831912076,7.166385539,0.265046601
148636,1682211421,833132715,-0.831964184,7.16644227,0.265250178
148637,1682211421,842333005,-0.832275835,7.166557008,0.264991159
148638,1682211421,853434619,-0.832178082,7.16660512,0.26508855
148639,1682211421,865663994,-0.832297874,7.166728536,0.264885479
148640,1682211421,872832301,-0.831936827,7.166448341,0.264996855
148641,1682211421,882876899,-0.832140172,7.166537754,0.265144076
148642,1682211421,892484364,-0.832245295,7.16656282,0.265065839
148643,1682211421,905169724,-0.831978354,7.166370864,0.265226251
148644,1682211421,912334210,-0.831940974,7.166545011,0.265221521
148645,1682211421,924071822,-0.832007587,7.166536853,0.264927854
148646,1682211421,932374688,-0.832107571,7.166675992,0.265038102
148647,1682211421,942367417,-0.832076163,7.166575768,0.265129317
148648,1682211421,953403987,-0.832111769,7.16655562,0.265193013
148649,1682211421,963351442,-0.83204507,7.166551043,0.265205637
148650,1682211421,973158902,-0.831909583,7.166483126,0.265227475
148651,1682211421,982653822,-0.831928517,7.16645666,0.265061591
148652,1682211421,992276651,-0.832253098,7.166747282,0.265070761
148653,1682211422,2387176,-0.832120401,7.166590411,0.265155573
148654,1682211422,12499945,-0.832072909,7.166514242,0.265214336
148655,1682211422,22410296,-0.831871676,7.166365263,0.265348611
148656,1682211422,35290853,-0.831712465,7.166232335,0.265174319
148657,1682211422,44846403,-0.831697328,7.166292725,0.265161434
148658,1682211422,53318912,-0.831705219,7.166315297,0.265116822
148659,1682211422,64102993,-0.831686984,7.166247948,0.265194054
148660,1682211422,72182757,-0.831703112,7.166207407,0.265235556
148661,1682211422,82288835,-0.831711983,7.166170576,0.26526803
148662,1682211422,93237690,-0.831704096,7.166200579,0.265229549
148663,1682211422,102256341,-0.831693355,7.166253083,0.265215793
148664,1682211422,113161381,-0.831689437,7.166274253,0.265193472
148665,1682211422,122405839,-0.831671239,7.166191278,0.265213288
148666,1682211422,132752530,-0.831464873,7.166042604,0.265379188
148667,1682211422,142513764,-0.831639553,7.166116806,0.265313016
148668,1682211422,152513378,-0.831570997,7.166111145,0.265352734
148669,1682211422,163676650,-0.831825338,7.166344516,0.265088713
148670,1682211422,172731208,-0.831687783,7.166264892,0.265231953
148671,1682211422,184818782,-0.831576037,7.166152021,0.265333406
148672,1682211422,192266302,-0.831639043,7.16615478,0.265334686
148673,1682211422,202193113,-0.831657174,7.166136122,0.265353925
148674,1682211422,213216192,-0.831575248,7.166089319,0.265400896
148675,1682211422,224706724,-0.831821887,7.166404583,0.265123938
148676,1682211422,232314566,-0.831973288,7.166504699,0.265004057
148677,1682211422,242416007,-0.831952658,7.166476857,0.265063292
148678,1682211422,252778280,-0.831944732,7.166411551,0.265094735
148679,1682211422,262454721,-0.831937875,7.166398125,0.265165196
148680,1682211422,272517272,-0.831947615,7.166410158,0.265123248
148681,1682211422,283698150,-0.83184822,7.166416488,0.26517922
148682,1682211422,292651071,-0.832111323,7.166569078,0.264888248
148683,1682211422,302793189,-0.832085662,7.166534015,0.264923517
148684,1682211422,312225802,-0.83209215,7.16651153,0.264924967
148685,1682211422,322234722,-0.83184507,7.166353468,0.265123202
148686,1682211422,332478853,-0.831864533,7.166368418,0.265096716
148687,1682211422,343815627,-0.832065928,7.166470046,0.26495992
148688,1682211422,352419572,-0.832108314,7.166515791,0.264897687
148689,1682211422,363324786,-0.832112331,7.166534162,0.264883347
148690,1682211422,372104635,-0.832096254,7.166500522,0.264912215
148691,1682211422,384108203,-0.832249217,7.166595536,0.264819578
148692,1682211422,392400651,-0.832176218,7.166569751,0.264904176
148693,1682211422,402575310,-0.832078523,7.166553764,0.264983845
148694,1682211422,412463888,-0.83182817,7.166484224,0.26515971
148695,1682211422,422566224,-0.832002512,7.166471428,0.264964896
148696,1682211422,432639545,-0.83195363,7.166430243,0.265024666
148697,1682211422,442174498,-0.831805788,7.16634949,0.265183411
148698,1682211422,452274152,-0.831958136,7.16639414,0.265093871
148699,1682211422,462219360,-0.831777965,7.166340276,0.265185165
148700,1682211422,472993646,-0.83234682,7.166693646,0.264953018
148701,1682211422,484808003,-0.832165312,7.166638262,0.26506352
148702,1682211422,492249112,-0.832242785,7.16664592,0.265041402
148703,1682211422,502694521,-0.83219037,7.166586943,0.26507096
148704,1682211422,512239321,-0.832175871,7.166577015,0.265127471
148705,1682211422,524182955,-0.831953275,7.166428089,0.265225214
148706,1682211422,532914446,-0.832315518,7.166771275,0.265041075
148707,1682211422,543030919,-0.832092826,7.166508267,0.265083224
148708,1682211422,552524784,-0.832078675,7.166469672,0.265106062
148709,1682211422,562591616,-0.832056925,7.166448817,0.265113236
148710,1682211422,572372579,-0.832235919,7.166532819,0.264904594
148711,1682211422,582571821,-0.832055464,7.166434884,0.265117108
148712,1682211422,592774001,-0.832118248,7.166595764,0.26506522
148713,1682211422,602342986,-0.832171081,7.166577565,0.265007839
148714,1682211422,612284258,-0.83201349,7.166437701,0.265117529
148715,1682211422,622439695,-0.832132762,7.166483822,0.265002348
148716,1682211422,634403023,-0.831995351,7.166443229,0.265081459
148717,1682211422,642447137,-0.832000732,7.166389152,0.265129362
148718,1682211422,652974198,-0.831981664,7.166402007,0.265182772
148719,1682211422,662199567,-0.831982529,7.166444441,0.265218443
148720,1682211422,673493152,-0.831978669,7.166424631,0.265166207
148721,1682211422,682253273,-0.832013608,7.166425725,0.265093918
148722,1682211422,692414589,-0.83181373,7.166324603,0.265276052
148723,1682211422,702415166,-0.831991893,7.166411206,0.265192863
148724,1682211422,712251850,-0.832124236,7.166495096,0.265017973
148725,1682211422,722237735,-0.83212935,7.166515738,0.264994168
148726,1682211422,733541452,-0.831845286,7.166397347,0.265238902
148727,1682211422,742200929,-0.831963926,7.166465871,0.265116239
148728,1682211422,752607050,-0.831949052,7.166422653,0.265118274
148729,1682211422,762425987,-0.831989395,7.166385806,0.265196964
148730,1682211422,772935379,-0.832007209,7.166409321,0.265185265
148731,1682211422,783863107,-0.832000452,7.166432084,0.265195457
148732,1682211422,792237841,-0.832002346,7.16643337,0.265112069
148733,1682211422,803140759,-0.831999916,7.166441748,0.265084618
148734,1682211422,812474021,-0.832008883,7.16640608,0.265145304
148735,1682211422,822297085,-0.831962172,7.166375447,0.26517338
148736,1682211422,832245390,-0.831948975,7.166371621,0.265204809
148737,1682211422,842927737,-0.831907176,7.166361026,0.265211009
148738,1682211422,852961942,-0.832108316,7.166519336,0.264997074
148739,1682211422,862559398,-0.831994297,7.166494133,0.265076239
148740,1682211422,872735336,-0.832028567,7.166475643,0.265096069
148741,1682211422,883281412,-0.831994863,7.16642236,0.265197825
148742,1682211422,892635489,-0.831983155,7.166407113,0.265270246
148743,1682211422,902471353,-0.832002823,7.166480667,0.265194221
148744,1682211422,912649801,-0.832049523,7.166543725,0.265078734
148745,1682211422,922693790,-0.832042753,7.166542877,0.265051197
148746,1682211422,932611333,-0.832038811,7.166538147,0.26513701
148747,1682211422,943050044,-0.832051256,7.166478987,0.265211437
148748,1682211422,953494202,-0.832057236,7.166481481,0.265186158
148749,1682211422,963240929,-0.832209689,7.166612842,0.265018663
148750,1682211422,972429655,-0.83196317,7.166569317,0.265204341
148751,1682211422,982585809,-0.832096678,7.166631401,0.265050896
148752,1682211422,992864603,-0.832052263,7.166583954,0.265050704
148753,1682211423,2553315,-0.832093238,7.166528401,0.265150043
148754,1682211423,12634070,-0.832100753,7.166532598,0.265202451
148755,1682211423,22702004,-0.832100415,7.166541158,0.265161189
148756,1682211423,33553347,-0.83208343,7.16655013,0.265136875
148757,1682211423,42261276,-0.831944746,7.166520771,0.265202132
148758,1682211423,52474718,-0.832104114,7.166554723,0.265060435
148759,1682211423,62412508,-0.832063333,7.166491323,0.265102664
148760,1682211423,72481380,-0.832066234,7.16650047,0.265151898
148761,1682211423,82283359,-0.832217515,7.166609867,0.265099402
148762,1682211423,92652791,-0.832101677,7.166622584,0.265111218
148763,1682211423,103155693,-0.832077518,7.166656439,0.264994746
148764,1682211423,112858004,-0.831980529,7.166585826,0.265134198
148765,1682211423,122480513,-0.832090586,7.166581741,0.265171216
148766,1682211423,132406158,-0.832061363,7.16652716,0.265218093
148767,1682211423,142512780,-0.832065105,7.166575731,0.265205372
148768,1682211423,152613602,-0.832086393,7.166643288,0.265160949
148769,1682211423,163128692,-0.831958361,7.166586813,0.265186785
148770,1682211423,172801340,-0.831975022,7.166529485,0.265189471
148771,1682211423,182440629,-0.832127781,7.166547918,0.265148099
148772,1682211423,192670643,-0.832166497,7.166520063,0.26523513
148773,1682211423,202647583,-0.832184213,7.166534157,0.265198184
148774,1682211423,212378297,-0.832060261,7.166533047,0.265189771
148775,1682211423,222701033,-0.83215322,7.166655178,0.265023644
148776,1682211423,232751833,-0.832025908,7.166614191,0.26514235
148777,1682211423,242911902,-0.83211527,7.166597789,0.265121558
148778,1682211423,252772158,-0.832104585,7.166552789,0.26516459
148779,1682211423,262361608,-0.831941011,7.166513845,0.26529157
148780,1682211423,272575003,-0.832094382,7.16661818,0.265162962
148781,1682211423,282369506,-0.832074907,7.166653619,0.265075044
148782,1682211423,293887589,-0.832115298,7.166586339,0.265090565
148783,1682211423,302542276,-0.832011852,7.166488855,0.265210405
148784,1682211423,313206690,-0.831995839,7.166431617,0.265278098
148785,1682211423,322539502,-0.832116967,7.166478764,0.265191287
148786,1682211423,332622842,-0.832148294,7.166556777,0.265163908
148787,1682211423,342179417,-0.832139535,7.166639034,0.265088731
148788,1682211423,353089278,-0.831959576,7.166585752,0.265141381
148789,1682211423,362391628,-0.832045405,7.16662091,0.26506108
148790,1682211423,372258872,-0.832060901,7.166553024,0.265205463
148791,1682211423,382537566,-0.831914459,7.166494704,0.265352358
148792,1682211423,392742893,-0.831914739,7.166504013,0.265294264
148793,1682211423,402611303,-0.832099558,7.166612259,0.265092142
148794,1682211423,412297369,-0.831989603,7.166574524,0.265113459
148795,1682211423,422415779,-0.832111081,7.166562323,0.265087758
148796,1682211423,432786957,-0.831944831,7.166480425,0.265303115
148797,1682211423,442147695,-0.832090243,7.166560451,0.265241548
148798,1682211423,452772412,-0.831952198,7.166544479,0.265248478
148799,1682211423,462385929,-0.83204555,7.166658978,0.265029507
148800,1682211423,473002063,-0.831954274,7.166618857,0.265121442
148801,1682211423,482660711,-0.832106065,7.166611902,0.265057053
148802,1682211423,492285687,-0.832097887,7.166516395,0.265142319
148803,1682211423,503127250,-0.832116945,7.166464551,0.265201618
148804,1682211423,512833081,-0.832153786,7.166558092,0.265169189
148805,1682211423,523017503,-0.832167107,7.166628852,0.265088941
148806,1682211423,533363024,-0.832135762,7.166632014,0.265042688
148807,1682211423,543404509,-0.832143431,7.166621171,0.26502493
148808,1682211423,554562116,-0.83210963,7.166534017,0.265133334
148809,1682211423,562466076,-0.83219584,7.166559722,0.265047129
148810,1682211423,572655965,-0.832057295,7.166518102,0.265163316
148811,1682211423,583023037,-0.832093565,7.166608386,0.265082531
148812,1682211423,593994370,-0.83223641,7.166702502,0.264891456
148813,1682211423,602193069,-0.832130144,7.166596539,0.265018835
148814,1682211423,612372880,-0.832240467,7.166577244,0.264976992
148815,1682211423,622430984,-0.832114604,7.16652105,0.265145959
148816,1682211423,632863872,-0.832147154,7.166566869,0.26514533
148817,1682211423,643298089,-0.832139277,7.166611925,0.265109734
148818,1682211423,652591804,-0.832145538,7.166680626,0.264983982
148819,1682211423,662360581,-0.831984272,7.166568269,0.265121811
148820,1682211423,672761511,-0.832242612,7.166610728,0.264981504
148821,1682211423,682695089,-0.832105786,7.16648245,0.265172156
148822,1682211423,693626715,-0.83211594,7.166492114,0.265177964
148823,1682211423,702142643,-0.832114666,7.166594444,0.265033944
148824,1682211423,713831074,-0.832111359,7.166611991,0.265041256
148825,1682211423,721843642,-0.832290827,7.166675033,0.264915296
148826,1682211423,731921871,-0.832124843,7.166577477,0.265080197
148827,1682211423,741993853,-0.832267515,7.16658836,0.265051579
148828,1682211423,752659017,-0.832242459,7.166596947,0.265047644
148829,1682211423,761883007,-0.832217021,7.166649877,0.264945782
148830,1682211423,771968278,-0.832106782,7.166607665,0.265054293
148831,1682211423,782187065,-0.832077778,7.166575585,0.265080007
148832,1682211423,791873963,-0.832073416,7.166523711,0.265087069
148833,1682211423,803692582,-0.832059926,7.166466671,0.265148168
148834,1682211423,811848501,-0.832050903,7.166447766,0.265163764
148835,1682211423,821843524,-0.832121822,7.166545215,0.265105147
148836,1682211423,832075098,-0.832137276,7.166599583,0.265023437
148837,1682211423,842082454,-0.832117805,7.166639881,0.264998778
148838,1682211423,852680807,-0.83212322,7.166640796,0.265055293
148839,1682211423,861976674,-0.832127526,7.166554107,0.265139738
148840,1682211423,872107191,-0.832103279,7.166547554,0.265158146
148841,1682211423,882224185,-0.832114189,7.166610152,0.265150663
148842,1682211423,892471566,-0.832124729,7.166631829,0.265102466
148843,1682211423,902402825,-0.832106686,7.166593569,0.26506058
148844,1682211423,912482758,-0.832101738,7.166543105,0.265060494
148845,1682211423,923746518,-0.832092939,7.166489367,0.265169058
148846,1682211423,932113559,-0.832223239,7.166580195,0.26508384
148847,1682211423,942144131,-0.832108087,7.166539858,0.265152322
148848,1682211423,952464340,-0.832086196,7.16657065,0.265112914
148849,1682211423,962815766,-0.832090414,7.166642343,0.265107653
148850,1682211423,972555497,-0.832087786,7.166650572,0.26508717
148851,1682211423,983057640,-0.832020973,7.166539663,0.265059045
148852,1682211423,992395193,-0.832050733,7.166598419,0.265234409
148853,1682211424,2671820,-0.832282733,7.167127839,0.265122448
148854,1682211424,12469679,-0.832275378,7.167293448,0.265312161
148855,1682211424,23270412,-0.831856763,7.166646842,0.266079058
148856,1682211424,32888903,-0.830918403,7.164938807,0.266528088
148857,1682211424,42886732,-0.830358293,7.163650932,0.266678834
148858,1682211424,52530002,-0.829614099,7.161627682,0.266767924
148859,1682211424,64412216,-0.828450178,7.159508362,0.266303357
148860,1682211424,72333220,-0.827300393,7.156876603,0.265801143
148861,1682211424,82821434,-0.825565402,7.15508385,0.265170508
148862,1682211424,92301706,-0.823856574,7.151647918,0.264987321
148863,1682211424,102284989,-0.82218177,7.148729496,0.265208628
148864,1682211424,114106913,-0.820696168,7.146323673,0.265357856
148865,1682211424,123585563,-0.819002528,7.143486824,0.265527979
148866,1682211424,132425844,-0.817431829,7.140705279,0.265556842
148867,1682211424,142344149,-0.815278921,7.136827663,0.265948967
148868,1682211424,153324515,-0.813127845,7.132961857,0.266067022
148869,1682211424,163528931,-0.811116724,7.12970217,0.265617895
148870,1682211424,172320134,-0.808804967,7.125243931,0.265640762
148871,1682211424,182249249,-0.806528765,7.120894623,0.265662484
148872,1682211424,192613975,-0.804136112,7.116610691,0.26548397
148873,1682211424,202636975,-0.801440793,7.112042076,0.265509323
148874,1682211424,212239342,-0.79880689,7.107519117,0.265300602
148875,1682211424,223218279,-0.796210587,7.10294011,0.265534877
148876,1682211424,232855024,-0.793510037,7.098761047,0.265350199
148877,1682211424,242309874,-0.791007005,7.093659476,0.265435608
148878,1682211424,253190974,-0.788604028,7.089072715,0.265142897
148879,1682211424,262457044,-0.785793755,7.084653508,0.265237118
148880,1682211424,272634799,-0.78333648,7.079694404,0.265122621
148881,1682211424,282263393,-0.777169821,7.076526805,0.263880769
148882,1682211424,292327296,-0.774858448,7.071689155,0.264036125
148883,1682211424,303872017,-0.772446326,7.066685995,0.264496476
148884,1682211424,312401023,-0.773671885,7.060012891,0.265549872
148885,1682211424,322630365,-0.771460651,7.056388346,0.265160412
148886,1682211424,332543040,-0.769641855,7.051653689,0.265157131
148887,1682211424,342139929,-0.767260482,7.047288126,0.26541681
148888,1682211424,352435322,-0.765109558,7.043637474,0.265106336
148889,1682211424,362374018,-0.76294451,7.038469519,0.265270339
148890,1682211424,372478433,-0.76079821,7.034011977,0.265509725
148891,1682211424,382299820,-0.758740363,7.029598045,0.265591715
148892,1682211424,394062920,-0.756790659,7.025122012,0.265432557
148893,1682211424,402292469,-0.754697761,7.020764342,0.265451027
148894,1682211424,412736728,-0.75297501,7.016642251,0.265366649
148895,1682211424,422495139,-0.750733805,7.012387554,0.265604511
148896,1682211424,433738606,-0.748911271,7.008841424,0.265230134
148897,1682211424,442149888,-0.747106499,7.004271097,0.265425462
148898,1682211424,452295257,-0.745376967,7.00019829,0.265243602
148899,1682211424,462815551,-0.743574565,6.996075396,0.265220748
148900,1682211424,472192548,-0.741541816,6.992059223,0.265196882
148901,1682211424,483937142,-0.739807886,6.987186279,0.265506098
148902,1682211424,492668954,-0.738015907,6.982848164,0.265472064
148903,1682211424,502318876,-0.736304841,6.978714729,0.265442705
148904,1682211424,512835592,-0.734428487,6.974959533,0.265308792
148905,1682211424,522527555,-0.732722577,6.970323227,0.265466222
148906,1682211424,533858132,-0.73121514,6.96646038,0.265364942
148907,1682211424,542863334,-0.729256718,6.962304958,0.265525356
148908,1682211424,552531334,-0.727593721,6.95827356,0.265547684
148909,1682211424,563468760,-0.725559028,6.954748347,0.265549397
148910,1682211424,572507785,-0.724058336,6.950160646,0.265597298
148911,1682211424,582451911,-0.722478228,6.945890135,0.265346951
148912,1682211424,592570623,-0.721099581,6.941527103,0.265233846
148913,1682211424,602770447,-0.719116346,6.937139,0.265578481
148914,1682211424,612377804,-0.717461162,6.932822441,0.265595334
148915,1682211424,622746079,-0.715937413,6.928826908,0.265403006
148916,1682211424,633264817,-0.714369273,6.924823356,0.265416405
148917,1682211424,642467380,-0.712819615,6.921257205,0.26512541
148918,1682211424,652907510,-0.711236728,6.917613855,0.264904113
148919,1682211424,662517634,-0.709885185,6.912719441,0.265236775
148920,1682211424,672548106,-0.708500543,6.908646218,0.26511494
148921,1682211424,682372903,-0.706874898,6.90455233,0.265087698
148922,1682211424,693286686,-0.705402553,6.900502549,0.264980376
148923,1682211424,703721160,-0.703842279,6.896872802,0.264667849
148924,1682211424,712547807,-0.702550144,6.892506152,0.264779688
148925,1682211424,722452287,-0.700812131,6.888803624,0.264820873
148926,1682211424,732345748,-0.699476143,6.884609638,0.26500706
148927,1682211424,742408836,-0.698216588,6.880964705,0.264804931
148928,1682211424,752534768,-0.696915308,6.877217274,0.264821596
148929,1682211424,763821158,-0.695676066,6.873504622,0.26457668
148930,1682211424,773007554,-0.694279848,6.869461337,0.264677555
148931,1682211424,782157962,-0.693013952,6.866029479,0.264529112
148932,1682211424,792804801,-0.691913324,6.86171224,0.264450655
148933,1682211424,802444641,-0.690706859,6.85775183,0.264420863
148934,1682211424,812195986,-0.68533283,6.855835082,0.263240899
148935,1682211424,822997414,-0.684211732,6.851236752,0.263423531
148936,1682211424,833422455,-0.682965584,6.847469379,0.263293415
148937,1682211424,842362587,-0.681828658,6.843728384,0.263220409
148938,1682211424,852265234,-0.680762138,6.840358379,0.262946437
148939,1682211424,862863782,-0.67947429,6.836347345,0.262972695
148940,1682211424,872901585,-0.678077992,6.832830408,0.262868598
148941,1682211424,882595363,-0.67686459,6.82897597,0.262873875
148942,1682211424,892243400,-0.675868075,6.824587672,0.26284707
148943,1682211424,903318103,-0.674642718,6.821023447,0.26294485
148944,1682211424,912430804,-0.673490802,6.817392998,0.262832408
148945,1682211424,922219794,-0.672606753,6.813647536,0.262588413
148946,1682211424,932228963,-0.671083012,6.810166231,0.263015873
148947,1682211424,942591200,-0.670281228,6.806761465,0.262753212
148948,1682211424,952903613,-0.668967293,6.803510475,0.262714765
148949,1682211424,962755914,-0.668000893,6.799887208,0.262630998
148950,1682211424,972290219,-0.66719958,6.796213975,0.262609449
148951,1682211424,982261416,-0.666004521,6.792544187,0.262757254
148952,1682211424,992656153,-0.665180185,6.788854806,0.262492734
148953,1682211425,2505070,-0.667442914,6.784457712,0.263590833
148954,1682211425,12325933,-0.666601545,6.780558834,0.263552765
148955,1682211425,22441806,-0.666002016,6.777149961,0.263457751
148956,1682211425,32500812,-0.664795947,6.773816615,0.263443943
148957,1682211425,42317453,-0.663448909,6.771771585,0.26306502
148958,1682211425,52193105,-0.662842583,6.767355682,0.263321576
148959,1682211425,62521779,-0.661518088,6.764445543,0.26311972
148960,1682211425,73586275,-0.661054113,6.760417696,0.262889051
148961,1682211425,82478453,-0.659962718,6.756917442,0.262934129
148962,1682211425,92521216,-0.658830219,6.75338517,0.263048239
148963,1682211425,102553511,-0.657787262,6.750353194,0.263111222
148964,1682211425,113199000,-0.657033082,6.746511166,0.262978975
148965,1682211425,122959778,-0.656188995,6.743083048,0.26276007
148966,1682211425,134956436,-0.650189284,6.741744913,0.261160796
148967,1682211425,143026675,-0.650013196,6.737789776,0.261799456
148968,1682211425,153307826,-0.64907445,6.734577822,0.261696693
148969,1682211425,162762560,-0.648283496,6.731316418,0.261460497
148970,1682211425,172066610,-0.647558648,6.728059154,0.261365592
148971,1682211425,182549075,-0.646451208,6.724804701,0.261455395
148972,1682211425,192619755,-0.645311418,6.721258708,0.26137531
148973,1682211425,203331983,-0.648273033,6.716695241,0.262352655
148974,1682211425,212333500,-0.647479057,6.71346239,0.262352079
148975,1682211425,222141404,-0.646618311,6.710756909,0.262295075
148976,1682211425,232519014,-0.645903482,6.707302434,0.262264362
148977,1682211425,242191941,-0.644423286,6.704685257,0.262273031
148978,1682211425,252223972,-0.644100957,6.701534433,0.261983068
148979,1682211425,262367321,-0.642940888,6.698182852,0.26209832
148980,1682211425,272344101,-0.642472288,6.695334482,0.261779433
148981,1682211425,284263558,-0.64162315,6.692172457,0.261898964
148982,1682211425,292181035,-0.640835882,6.688930812,0.261914952
148983,1682211425,303417041,-0.63969077,6.685677654,0.261933137
148984,1682211425,314306269,-0.638778078,6.682494929,0.262002986
148985,1682211425,323424123,-0.638051746,6.679432146,0.261939763
148986,1682211425,332714601,-0.637754219,6.676577564,0.261496386
148987,1682211425,343234797,-0.636496933,6.673984874,0.261764238
148988,1682211425,353825519,-0.635623584,6.671050912,0.261703217
148989,1682211425,362576046,-0.635116819,6.66784434,0.261539211
148990,1682211425,373471816,-0.634367012,6.66472097,0.261493803
148991,1682211425,382508545,-0.633708275,6.661491456,0.261403485
148992,1682211425,393533366,-0.633011017,6.658225932,0.261357521
148993,1682211425,402629432,-0.631938992,6.655113098,0.26173267
148994,1682211425,412616555,-0.631243969,6.652050633,0.261684671
148995,1682211425,423753948,-0.63042365,6.649068231,0.261551618
148996,1682211425,432794655,-0.629656721,6.646356268,0.261318388
148997,1682211425,443171688,-0.629089705,6.643403058,0.261264745
148998,1682211425,452940661,-0.62864069,6.64058322,0.261034274
148999,1682211425,463728100,-0.627651397,6.637652043,0.26134486
149000,1682211425,472693713,-0.626924199,6.63466987,0.261359051
149001,1682211425,482100255,-0.626399865,6.631674902,0.26119067
149002,1682211425,492095630,-0.621126731,6.630337224,0.259543268
149003,1682211425,502315652,-0.624598505,6.626267476,0.260875009
149004,1682211425,514107021,-0.623580832,6.623491278,0.260823385
149005,1682211425,522516726,-0.623087831,6.621012528,0.260850221
149006,1682211425,531828155,-0.622870093,6.617447693,0.261182946
149007,1682211425,542623112,-0.622141274,6.614800958,0.261105112
149008,1682211425,555192209,-0.621643942,6.611934929,0.26094727
149009,1682211425,565397410,-0.621125397,6.609300539,0.260725717
149010,1682211425,572097959,-0.620394455,6.606429166,0.260986809
149011,1682211425,581483291,-0.619050824,6.603784816,0.260399301
149012,1682211425,592976392,-0.618759946,6.600877723,0.260776913
149013,1682211425,600907361,-0.61809774,6.597829364,0.260836332
149014,1682211425,612129209,-0.617617482,6.595740154,0.260527928
149015,1682211425,622341401,-0.612532843,6.5946155,0.259204031
149016,1682211425,634969159,-0.61662858,6.590219399,0.260726651
149017,1682211425,641593903,-0.616014808,6.58774631,0.260811864
149018,1682211425,651351565,-0.615274915,6.585664187,0.260807558
149019,1682211425,661030203,-0.614904469,6.582681915,0.260902158
149020,1682211425,671342568,-0.614614522,6.580126859,0.260488121
149021,1682211425,681065312,-0.609760977,6.578699166,0.258883769
149022,1682211425,695027178,-0.613069909,6.574788912,0.260252143
149023,1682211425,701721226,-0.613047784,6.572158639,0.260347861
149024,1682211425,711534865,-0.612583806,6.569487659,0.2604594
149025,1682211425,722536971,-0.612047094,6.567116425,0.260422473
149026,1682211425,731553568,-0.611199265,6.564919092,0.260404383
149027,1682211425,744427719,-0.610901867,6.562244243,0.260219981
149028,1682211425,752651934,-0.610154382,6.559741156,0.260380498
149029,1682211425,763812088,-0.609688384,6.557201824,0.260253276
149030,1682211425,772568771,-0.609248669,6.554570462,0.260313208
149031,1682211425,781644022,-0.608780234,6.551849,0.260300249
149032,1682211425,794632137,-0.60817234,6.549247586,0.26033001
149033,1682211425,803530545,-0.607740364,6.546687806,0.260191176
149034,1682211425,811492754,-0.607054083,6.544559085,0.259860673
149035,1682211425,821653974,-0.606501767,6.541836507,0.260251678
149036,1682211425,832200859,-0.605908383,6.539558311,0.260210548
149037,1682211425,842142558,-0.605450441,6.537578312,0.260135067
149038,1682211425,852570655,-0.604945811,6.534991554,0.260174469
149039,1682211425,862792018,-0.604151018,6.532464132,0.259859612
149040,1682211425,874465000,-0.603679557,6.530502644,0.25973266
149041,1682211425,881975570,-0.602889027,6.527745871,0.259680724
149042,1682211425,891854711,-0.602402352,6.524944844,0.259684946
149043,1682211425,904734741,-0.602526718,6.522513572,0.260249866
149044,1682211425,912059784,-0.60197677,6.520249049,0.260156821
149045,1682211425,921791704,-0.601259101,6.518467956,0.259977931
149046,1682211425,931785715,-0.601167024,6.515696418,0.25981933
149047,1682211425,942076361,-0.600622771,6.513778787,0.259953519
149048,1682211425,952352442,-0.600400456,6.511516406,0.259929891
149049,1682211425,963889514,-0.599974105,6.509184886,0.259921118
149050,1682211425,973654466,-0.599467163,6.506918882,0.259888494
149051,1682211425,982288969,-0.595097618,6.506046013,0.258246065
149052,1682211425,992135113,-0.59477721,6.503577761,0.258111223
149053,1682211426,2841224,-0.594317178,6.500941191,0.258326337
149054,1682211426,12289000,-0.59397269,6.498755441,0.258254278
149055,1682211426,25376784,-0.593201537,6.496726613,0.258138808
149056,1682211426,33671527,-0.592751657,6.494812843,0.257968461
149057,1682211426,42355645,-0.592242677,6.492500359,0.2578802
149058,1682211426,53451017,-0.591850986,6.490478229,0.257789475
149059,1682211426,62379276,-0.591872586,6.488233107,0.257981851
149060,1682211426,75304931,-0.591638048,6.485856666,0.258147984
149061,1682211426,82439952,-0.591246769,6.483403973,0.258163888
149062,1682211426,92524468,-0.590896554,6.481078518,0.257992961
149063,1682211426,101662869,-0.590363741,6.478840337,0.258128489
149064,1682211426,111934014,-0.589908134,6.476760797,0.258151764
149065,1682211426,122525159,-0.589633917,6.474510934,0.257885081
149066,1682211426,131864414,-0.589104631,6.472722143,0.257935591
149067,1682211426,147722539,-0.5888669,6.470458049,0.258028224
149068,1682211426,152042479,-0.588609598,6.468782738,0.257928598
149069,1682211426,161820470,-0.58816058,6.466368724,0.257859685
149070,1682211426,171811716,-0.587714442,6.46428184,0.257918738
149071,1682211426,183839333,-0.587327843,6.462339979,0.257859802
149072,1682211426,193005381,-0.587061207,6.459798505,0.257895004
149073,1682211426,201842548,-0.586592816,6.457470533,0.257946814
149074,1682211426,212546497,-0.586099015,6.455163551,0.258033988
149075,1682211426,221521242,-0.585759178,6.453096273,0.257920783
149076,1682211426,232914709,-0.588965247,6.45024594,0.258878491
149077,1682211426,241462754,-0.588771178,6.448209885,0.258994249
149078,1682211426,251423084,-0.588361921,6.446112696,0.25898889
149079,1682211426,262058059,-0.584069603,6.444744871,0.257913849
149080,1682211426,272316731,-0.583738102,6.442614099,0.257962646
149081,1682211426,283193391,-0.583241358,6.440357262,0.258071836
149082,1682211426,292667106,-0.582926622,6.438110765,0.25797068
149083,1682211426,301512718,-0.582334167,6.436132439,0.257654385
149084,1682211426,312546820,-0.581993083,6.434007152,0.257833408
149085,1682211426,323638655,-0.581463197,6.432460093,0.257831068
149086,1682211426,331981020,-0.581526142,6.4301194,0.258004962
149087,1682211426,342532788,-0.58116442,6.428221303,0.257939303
149088,1682211426,353679067,-0.580773425,6.426357672,0.25799019
149089,1682211426,361450248,-0.580328081,6.424263386,0.258111296
149090,1682211426,389193787,-0.579466238,6.420091919,0.257991895
149091,1682211426,391323279,-0.579321672,6.417916332,0.258075728
149092,1682211426,408642315,-0.578806393,6.416064042,0.258151899
149093,1682211426,411782907,-0.578563985,6.414096803,0.258070793
149094,1682211426,420862969,-0.57822796,6.412205898,0.258075095
149095,1682211426,431207961,-0.577690132,6.410442554,0.257829288
149096,1682211426,440816477,-0.57728321,6.408407046,0.257853671
149097,1682211426,451288398,-0.577054973,6.406492888,0.257945362
149098,1682211426,461262990,-0.576582475,6.404535068,0.258025412
149099,1682211426,473588437,-0.576396275,6.402647565,0.257991665
149100,1682211426,482167646,-0.576160183,6.400781886,0.258210866
149101,1682211426,492394076,-0.576092695,6.398744073,0.25797165
149102,1682211426,504202654,-0.575601677,6.397262949,0.258099757
149103,1682211426,512991070,-0.575191799,6.395067582,0.258325118
149104,1682211426,521398269,-0.574743524,6.393495431,0.258267247
149105,1682211426,531824986,-0.574456996,6.391625345,0.258213242
149106,1682211426,541372784,-0.574186099,6.389774087,0.258194587
149107,1682211426,552461390,-0.57383128,6.38787874,0.258219798
149108,1682211426,562308576,-0.573411388,6.385879875,0.258319322
149109,1682211426,571189174,-0.573179746,6.383925418,0.258337835
149110,1682211426,581808255,-0.572728183,6.381953072,0.258316359
149111,1682211426,591778055,-0.572260469,6.380314411,0.258438586
149112,1682211426,602894002,-0.571941323,6.37847024,0.258293244
149113,1682211426,612232716,-0.571642197,6.376888603,0.258236475
149114,1682211426,622455372,-0.571405978,6.374884189,0.258178063
149115,1682211426,633022126,-0.571045171,6.373052319,0.258203214
149116,1682211426,643829356,-0.570694386,6.371270404,0.258276492
149117,1682211426,652673303,-0.570297247,6.369507669,0.258396708
149118,1682211426,662532628,-0.570101168,6.367565174,0.258235454
149119,1682211426,672379658,-0.569491242,6.365895251,0.258386388
149120,1682211426,682809689,-0.568865841,6.364131593,0.258229553
149121,1682211426,692369066,-0.568555803,6.362361603,0.258274071
149122,1682211426,703712750,-0.56836383,6.360583327,0.258233662
149123,1682211426,716038300,-0.568038814,6.358753989,0.258265327
149124,1682211426,722208166,-0.567699437,6.357084754,0.25826948
149125,1682211426,732396408,-0.567317569,6.35548054,0.258166221
149126,1682211426,742684758,-0.567137777,6.353915855,0.257957136
149127,1682211426,753719653,-0.566814169,6.352271616,0.257909578
149128,1682211426,762237852,-0.566573783,6.350790149,0.257383537
149129,1682211426,774527365,-0.566475549,6.349076717,0.257562894
149130,1682211426,782399871,-0.566128237,6.347320808,0.257496709
149131,1682211426,794518785,-0.565728364,6.345561579,0.257619778
149132,1682211426,802404017,-0.565320478,6.34386227,0.257646477
149133,1682211426,812214731,-0.565138739,6.34217709,0.257662829
149134,1682211426,822183319,-0.564870228,6.340553595,0.257811383
149135,1682211426,833283952,-0.564539123,6.339029461,0.257932247
149136,1682211426,842052941,-0.563952619,6.33744256,0.257570327
149137,1682211426,854328175,-0.563699997,6.335807752,0.257374083
149138,1682211426,862326888,-0.563206497,6.334104348,0.257296673
149139,1682211426,873728149,-0.562754866,6.332511451,0.257499161
149140,1682211426,882885746,-0.562680055,6.330711254,0.257722261
149141,1682211426,892867245,-0.562447501,6.329009917,0.257658275
149142,1682211426,902279047,-0.565608495,6.326894645,0.258703255
149143,1682211426,914060723,-0.565773787,6.325096563,0.258777662
149144,1682211426,922387656,-0.565388685,6.323620233,0.258965143
149145,1682211426,932387971,-0.565225832,6.32207916,0.25889862
149146,1682211426,942365975,-0.564787264,6.320583626,0.25864919
149147,1682211426,952584158,-0.564535403,6.318850838,0.258685684
149148,1682211426,962392038,-0.564110307,6.317299857,0.25872861
149149,1682211426,972558723,-0.559782009,6.316609025,0.257483662
149150,1682211426,982439055,-0.55932125,6.315033772,0.257657201
149151,1682211426,992637147,-0.558978596,6.313517696,0.257720587
149152,1682211427,2596977,-0.558693503,6.311917485,0.257817705
149153,1682211427,12550468,-0.562598339,6.309482087,0.259123523
149154,1682211427,22252287,-0.558265914,6.308730299,0.258057955
149155,1682211427,34036201,-0.55793587,6.307314262,0.258026618
149156,1682211427,42098319,-0.557711958,6.305813147,0.257952392
149157,1682211427,52070710,-0.557489141,6.304263941,0.257904047
149158,1682211427,62430187,-0.557229404,6.302642671,0.257876644
149159,1682211427,73096981,-0.556920237,6.301070107,0.257990628
149160,1682211427,82352185,-0.556592586,6.299599429,0.258003699
149161,1682211427,91981452,-0.556301312,6.297974286,0.257756605
149162,1682211427,101843666,-0.555938779,6.296601524,0.257902955
149163,1682211427,112088876,-0.555546689,6.295222078,0.257919158
149164,1682211427,121941768,-0.555215856,6.293581814,0.25780373
149165,1682211427,132085299,-0.554995319,6.292337688,0.257973895
149166,1682211427,142256419,-0.554690318,6.2907982,0.257949181
149167,1682211427,151953520,-0.554341541,6.289443166,0.258016332
149168,1682211427,162336816,-0.554257825,6.287889463,0.257804399
149169,1682211427,172099416,-0.55408069,6.286358886,0.257685466
149170,1682211427,182081268,-0.55374214,6.285002693,0.257939828
149171,1682211427,192269599,-0.553490801,6.283509574,0.258089563
149172,1682211427,202959175,-0.553066369,6.282036467,0.257639425
149173,1682211427,212357453,-0.552799597,6.280634645,0.2576376
149174,1682211427,222586357,-0.552275312,6.279320716,0.257897573
149175,1682211427,232871355,-0.552172564,6.278048973,0.257938293
149176,1682211427,242300936,-0.551981488,6.276683816,0.257968167
149177,1682211427,252523464,-0.551703245,6.275195109,0.25809766
149178,1682211427,262590298,-0.551482766,6.273665728,0.25810828
149179,1682211427,272226399,-0.551215647,6.272147291,0.258055532
149180,1682211427,282380986,-0.550988327,6.270733421,0.25803255
149181,1682211427,294868583,-0.550688907,6.269316169,0.258008886
149182,1682211427,302606415,-0.55046194,6.267900724,0.258088948
149183,1682211427,312601719,-0.550356787,6.266571846,0.25799741
149184,1682211427,322721075,-0.550005638,6.265249128,0.258062548
149185,1682211427,332737660,-0.549725754,6.263926749,0.258019079
149186,1682211427,342628642,-0.549302489,6.26265992,0.258069605
149187,1682211427,355227942,-0.549005816,6.261308355,0.258034695
149188,1682211427,363266977,-0.54882043,6.259883459,0.258144202
149189,1682211427,374026864,-0.548417648,6.258528835,0.257889354
149190,1682211427,382557878,-0.548167205,6.256992305,0.25786774
149191,1682211427,392646716,-0.547952439,6.255809915,0.258054652
149192,1682211427,402399617,-0.547653771,6.254525708,0.258023111
149193,1682211427,412530733,-0.547350473,6.253213301,0.257929423
149194,1682211427,422491112,-0.547119426,6.25203151,0.257962894
149195,1682211427,432374206,-0.547068273,6.250701153,0.257647123
149196,1682211427,442137812,-0.546875952,6.249441944,0.257771373
149197,1682211427,452845818,-0.546563788,6.248110007,0.257612052
149198,1682211427,464139535,-0.546239671,6.246956019,0.25771622
149199,1682211427,473440684,-0.545984073,6.245780378,0.257615345
149200,1682211427,484052943,-0.545715517,6.244283261,0.257830998
149201,1682211427,492659012,-0.545434119,6.242938627,0.257838144
149202,1682211427,502388507,-0.545406465,6.241708007,0.258184767
149203,1682211427,512206192,-0.545205574,6.24062405,0.258304729
149204,1682211427,522524483,-0.545055504,6.239374894,0.258088634
149205,1682211427,532391181,-0.544807247,6.23819857,0.25808051
149206,1682211427,542148726,-0.548577821,6.236112506,0.259168509
149207,1682211427,552775440,-0.544488144,6.235581988,0.257963762
149208,1682211427,562299919,-0.544087107,6.234282946,0.258151869
149209,1682211427,572104348,-0.543931321,6.233025653,0.258025447
149210,1682211427,582412100,-0.543522519,6.231825089,0.258194883
149211,1682211427,594177483,-0.543393394,6.230519777,0.258010788
149212,1682211427,602865919,-0.543278147,6.22930939,0.258063451
149213,1682211427,612373317,-0.543034116,6.228186761,0.258290387
149214,1682211427,622330893,-0.542865908,6.226967251,0.258207218
149215,1682211427,632358499,-0.542536148,6.225814156,0.258207158
149216,1682211427,642382978,-0.542257371,6.224617081,0.258201158
149217,1682211427,652412261,-0.541995586,6.223408116,0.258201164
149218,1682211427,663443151,-0.541552521,6.222035184,0.257876632
149219,1682211427,674481558,-0.541541563,6.220873087,0.258332914
149220,1682211427,682259770,-0.541548412,6.219595123,0.258050038
149221,1682211427,692816386,-0.541171819,6.218472107,0.258247452
149222,1682211427,702466004,-0.540836111,6.21743913,0.257996308
149223,1682211427,712438817,-0.540630555,6.216275445,0.258155013
149224,1682211427,723068006,-0.544502714,6.214249715,0.259063185
149225,1682211427,732845711,-0.544185869,6.213128916,0.259244357
149226,1682211427,743134306,-0.54396046,6.211915138,0.259096656
149227,1682211427,752345532,-0.540013021,6.211764415,0.25801786
149228,1682211427,762664619,-0.539831132,6.210640496,0.258021497
149229,1682211427,773965650,-0.539563174,6.209535655,0.258052813
149230,1682211427,782313905,-0.539090182,6.208569255,0.257752627
149231,1682211427,792411362,-0.538764566,6.207589981,0.257875256
149232,1682211427,802130230,-0.541800306,6.205840003,0.258574712
149233,1682211427,812654593,-0.542162323,6.204334346,0.258948446
149234,1682211427,822465948,-0.53840975,6.203890543,0.257526677
149235,1682211427,832059837,-0.53834029,6.203103804,0.257301238
149236,1682211427,842431943,-0.538111531,6.202124344,0.257402474
149237,1682211427,852426896,-0.541999785,6.200011557,0.258314802
149238,1682211427,862754181,-0.54202598,6.198747771,0.258498115
149239,1682211427,872323170,-0.541533869,6.197721196,0.258819006
149240,1682211427,882645951,-0.537355065,6.197474924,0.257557992
149241,1682211427,892527893,-0.537079768,6.196360191,0.257621528
149242,1682211427,902293099,-0.536943838,6.19512308,0.257516828
149243,1682211427,912364584,-0.53677644,6.194075626,0.257610721
149244,1682211427,922282784,-0.536613151,6.19301719,0.257666677
149245,1682211427,932560519,-0.536505966,6.19195893,0.257651526
149246,1682211427,943875620,-0.53620327,6.191036759,0.257652016
149247,1682211427,952305293,-0.535930364,6.190168171,0.257683497
149248,1682211427,962393632,-0.539459272,6.188399948,0.258553745
149249,1682211427,972594952,-0.539404084,6.187252211,0.258420543
149250,1682211427,982387725,-0.539298622,6.186202228,0.258436675
149251,1682211427,992490858,-0.53527621,6.186127329,0.257281914
149252,1682211428,2743555,-0.535067461,6.185029818,0.257485793
149253,1682211428,12676339,-0.53516148,6.183970591,0.257618251
149254,1682211428,22676929,-0.534997171,6.182918125,0.257417442
149255,1682211428,32462522,-0.534613686,6.18194184,0.257418758
149256,1682211428,42950615,-0.534176289,6.181092177,0.257187205
