.header.seq,.header.stamp.secs,.header.stamp.nsecs,.transform.translation.x,.transform.translation.y,.transform.translation.z
148403,1682211418,802088121,-0.246861179,2.014444496,0.192914057
148404,1682211418,812890318,-0.24695613,2.014450384,0.19310128
148405,1682211418,826438437,-0.246856406,2.01438789,0.193228878
148406,1682211418,832342958,-0.246859474,2.014519263,0.192868258
148407,1682211418,842702917,-0.246823445,2.014577433,0.192856656
148408,1682211418,852587761,-0.246933713,2.014659818,0.192972918
148409,1682211418,862111200,-0.246969389,2.014557006,0.192962576
148410,1682211418,872383639,-0.24687413,2.014434199,0.193072155
148411,1682211418,882203748,-0.246898665,2.014422197,0.193248542
148412,1682211418,893441620,-0.246913157,2.014478843,0.193075204
148413,1682211418,902809385,-0.246883944,2.014532945,0.193001274
148414,1682211418,911932556,-0.246974958,2.014536241,0.192873157
148415,1682211418,922469973,-0.24690334,2.014461753,0.193094744
148416,1682211418,933198285,-0.247088019,2.014795414,0.192870492
148417,1682211418,942217717,-0.246957979,2.014592352,0.192981339
148418,1682211418,952347352,-0.246982635,2.014540249,0.19320145
148419,1682211418,962248225,-0.246988662,2.014566819,0.192886168
148420,1682211418,972228123,-0.24686346,2.0143959,0.193221144
148421,1682211418,983232958,-0.246888781,2.0144839,0.193055843
148422,1682211418,992310688,-0.246908348,2.014491585,0.193098786
148423,1682211419,2292008,-0.246935958,2.014600224,0.193070456
148424,1682211419,12635484,-0.246925215,2.014542176,0.193108243
148425,1682211419,22578825,-0.246897441,2.014490268,0.193097217
148426,1682211419,33596740,-0.246902765,2.014490558,0.193052203
148427,1682211419,42399475,-0.246922193,2.014411484,0.193063949
148428,1682211419,52698197,-0.246874326,2.014400568,0.193197544
148429,1682211419,63971272,-0.24682134,2.014430656,0.19307832
148430,1682211419,72352680,-0.246865309,2.014416614,0.193130223
148431,1682211419,83459841,-0.246906562,2.014494246,0.193070608
148432,1682211419,94523965,-0.246885983,2.014483701,0.19306144
148433,1682211419,103864375,-0.246859608,2.01438414,0.193110707
148434,1682211419,113814590,-0.246961402,2.014541562,0.192977441
148435,1682211419,122649288,-0.246862348,2.014383946,0.193147355
148436,1682211419,132561427,-0.247002798,2.014666415,0.192876275
148437,1682211419,142614224,-0.247230615,2.015068677,0.192799703
148438,1682211419,152713750,-0.247160659,2.014981952,0.192971022
148439,1682211419,162479074,-0.247157871,2.014964657,0.192961118
148440,1682211419,172488693,-0.247188478,2.014965838,0.192955102
148441,1682211419,182972750,-0.247167257,2.014972507,0.193018839
148442,1682211419,192909872,-0.246988066,2.014591795,0.192933438
148443,1682211419,202625914,-0.24686335,2.014444346,0.193065575
148444,1682211419,212835606,-0.246848567,2.014414105,0.19314424
148445,1682211419,222536089,-0.246889354,2.01449167,0.193079154
148446,1682211419,232561685,-0.2469102,2.014459611,0.193084946
148447,1682211419,242953952,-0.24690749,2.014457932,0.193110262
148448,1682211419,252365879,-0.246881099,2.01435072,0.193284989
148449,1682211419,262913535,-0.246922873,2.014492396,0.193108048
148450,1682211419,273444130,-0.246866867,2.014382332,0.193193228
148451,1682211419,283437048,-0.246877015,2.01450645,0.193085075
148452,1682211419,292707812,-0.246902793,2.014455396,0.19310293
148453,1682211419,302800784,-0.246904379,2.014425167,0.193071903
148454,1682211419,312492115,-0.246855185,2.014478209,0.192865608
148455,1682211419,322932517,-0.24699498,2.014697506,0.193021135
148456,1682211419,332462631,-0.246891205,2.014476928,0.193071249
148457,1682211419,342470828,-0.246843727,2.014372922,0.193112293
148458,1682211419,354909244,-0.246895078,2.01445655,0.193128523
148459,1682211419,362583825,-0.246906699,2.014473021,0.193139656
148460,1682211419,372716048,-0.246893801,2.014487114,0.193142275
148461,1682211419,382305985,-0.246997095,2.014629367,0.19314107
148462,1682211419,392417026,-0.247089209,2.014838742,0.192932888
148463,1682211419,403322585,-0.247165813,2.014990184,0.192966389
148464,1682211419,412153130,-0.247165039,2.01495008,0.192969132
148465,1682211419,423346034,-0.247173302,2.014949984,0.192974432
148466,1682211419,432299220,-0.246817346,2.014338421,0.193261196
148467,1682211419,442160973,-0.246860047,2.014411247,0.192994386
148468,1682211419,452332572,-0.246870713,2.014391926,0.193105881
148469,1682211419,462357360,-0.246890623,2.014471821,0.193104904
148470,1682211419,472388568,-0.246933815,2.014480159,0.193086804
148471,1682211419,482660690,-0.246865945,2.014380415,0.193138097
148472,1682211419,493862944,-0.246861859,2.014395238,0.193115345
148473,1682211419,502339443,-0.246877416,2.014374627,0.192898217
148474,1682211419,512289733,-0.24687109,2.014413213,0.193124351
148475,1682211419,523072883,-0.246892085,2.014479514,0.193080791
148476,1682211419,532684783,-0.246910191,2.01447751,0.193065064
148477,1682211419,542484328,-0.246909379,2.014475343,0.193094625
148478,1682211419,552320608,-0.246814387,2.014292952,0.193268302
148479,1682211419,562816124,-0.246881832,2.014451601,0.192952762
148480,1682211419,572267997,-0.246970343,2.01452683,0.193030044
148481,1682211419,582629316,-0.246878962,2.014483737,0.193071297
148482,1682211419,592851331,-0.246854547,2.014389006,0.193288911
148483,1682211419,602286682,-0.24690597,2.014461544,0.193116411
148484,1682211419,612740433,-0.246906043,2.014494712,0.193119199
148485,1682211419,622481851,-0.246979679,2.014606368,0.193163259
148486,1682211419,632491310,-0.246923551,2.014606441,0.1930715
148487,1682211419,642440305,-0.246844353,2.014370395,0.193190352
148488,1682211419,652483927,-0.246922754,2.014456873,0.192940033
148489,1682211419,662763058,-0.246894395,2.01445668,0.19314184
148490,1682211419,672226313,-0.24686543,2.014430099,0.192974094
148491,1682211419,682637093,-0.24685333,2.014369403,0.193053069
148492,1682211419,692471344,-0.246861092,2.014366517,0.193206642
148493,1682211419,702492695,-0.246857615,2.014353112,0.193234785
148494,1682211419,712492838,-0.246901054,2.014461112,0.19309777
148495,1682211419,722415909,-0.246864875,2.014435475,0.192965283
148496,1682211419,733047592,-0.247003868,2.014662557,0.193055741
148497,1682211419,742419481,-0.246900066,2.014487935,0.193121218
148498,1682211419,753460798,-0.24686247,2.01436835,0.193102605
148499,1682211419,764247673,-0.246856467,2.014354236,0.193200134
148500,1682211419,783490106,-0.247073325,2.014885611,0.192800004
148501,1682211419,793700096,-0.247183241,2.014976387,0.193021485
148502,1682211419,803171288,-0.247150807,2.014995252,0.193012558
148503,1682211419,812889057,-0.247232383,2.015090623,0.192795153
148504,1682211419,842588169,-0.246908176,2.014458583,0.193110865
148505,1682211419,852392413,-0.246973503,2.014534801,0.192921834
148506,1682211419,861999522,-0.246872048,2.014401578,0.19316482
148507,1682211419,872140692,-0.24709879,2.014840576,0.192937539
148508,1682211419,886601566,-0.246866706,2.01440756,0.193089911
148509,1682211419,903498004,-0.246868655,2.014331422,0.19311161
148510,1682211419,911756192,-0.246932365,2.014449134,0.193064219
148511,1682211419,922936694,-0.246932803,2.01448532,0.193091739
148512,1682211419,951231909,-0.247102125,2.014891204,0.192971784
148513,1682211419,960854265,-0.247156066,2.014975887,0.192963603
148514,1682211419,970346266,-0.247101147,2.014798015,0.19296238
148515,1682211419,980896122,-0.24708984,2.015104739,0.192876751
148516,1682211419,991927838,-0.246823335,2.014353038,0.193329563
148517,1682211420,368841,-0.246885838,2.014521217,0.193190365
148518,1682211420,10225254,-0.246975841,2.014571688,0.193025078
148519,1682211420,22261789,-0.246892413,2.014517562,0.193193565
148520,1682211420,31257744,-0.246935349,2.014544439,0.193209978
148521,1682211420,41055602,-0.246983851,2.014638471,0.192886622
148522,1682211420,50960641,-0.246925702,2.014558372,0.193206654
148523,1682211420,62431680,-0.247045677,2.014503939,0.193051061
148524,1682211420,71445959,-0.246914357,2.014448041,0.193203485
148525,1682211420,81474782,-0.246951817,2.0145555,0.193251524
148526,1682211420,91952332,-0.24693869,2.014534609,0.193226164
148527,1682211420,102396627,-0.246913293,2.014434591,0.19339286
148528,1682211420,112606322,-0.247012131,2.014589771,0.193137363
148529,1682211420,122191819,-0.246887563,2.014418112,0.193371804
148530,1682211420,134178592,-0.247009692,2.014651738,0.19306045
148531,1682211420,146126823,-0.247005986,2.014585304,0.193092899
148532,1682211420,152260943,-0.247053875,2.014580741,0.193057027
148533,1682211420,162930127,-0.246962348,2.014500365,0.193208684
148534,1682211420,172806073,-0.246892264,2.014446183,0.193281279
148535,1682211420,184835813,-0.246928755,2.014448017,0.193308695
148536,1682211420,192744025,-0.246940406,2.01451545,0.193191888
148537,1682211420,203547523,-0.246956855,2.014498197,0.193181755
148538,1682211420,212961256,-0.246930969,2.014438022,0.193224125
148539,1682211420,223715672,-0.247019581,2.014567369,0.19301508
148540,1682211420,233817685,-0.246915652,2.014548328,0.193151614
148541,1682211420,242398051,-0.246943872,2.014506138,0.193128793
148542,1682211420,252179323,-0.247014809,2.014625734,0.193229706
148543,1682211420,262377340,-0.246959169,2.014466573,0.193130931
148544,1682211420,272380387,-0.247027274,2.014384829,0.193184382
148545,1682211420,282187553,-0.246900713,2.014360143,0.193273092
148546,1682211420,292483251,-0.246972437,2.014468628,0.193131781
148547,1682211420,303546865,-0.246930569,2.014385396,0.193267363
148548,1682211420,312385086,-0.246965077,2.014483976,0.193138188
148549,1682211420,322392079,-0.246941876,2.01444984,0.193129235
148550,1682211420,332477087,-0.246939276,2.014461749,0.193163775
148551,1682211420,343202446,-0.246943967,2.014441932,0.193143992
148552,1682211420,353153524,-0.24695769,2.014448811,0.193139855
148553,1682211420,362466353,-0.246947588,2.014505629,0.19315942
148554,1682211420,372423780,-0.246923697,2.014402347,0.193328365
148555,1682211420,383217619,-0.246955468,2.014509234,0.193173463
148556,1682211420,395005193,-0.246957983,2.014319642,0.193107104
148557,1682211420,402665125,-0.24690123,2.014423205,0.19341837
148558,1682211420,412364627,-0.247067009,2.014507909,0.193164848
148559,1682211420,423892967,-0.247075776,2.014652524,0.19337745
148560,1682211420,432382667,-0.247022205,2.014492271,0.193245345
148561,1682211420,442529540,-0.246958053,2.014437193,0.193395135
148562,1682211420,452842538,-0.24697776,2.014400941,0.193420974
148563,1682211420,463277217,-0.247009544,2.014489647,0.193272469
148564,1682211420,472659851,-0.2470066,2.014539278,0.193335595
148565,1682211420,482728751,-0.246964473,2.014426628,0.193461908
148566,1682211420,492273198,-0.246904669,2.014399404,0.193402913
148567,1682211420,503687242,-0.247033302,2.014546392,0.193188766
148568,1682211420,511963073,-0.247183002,2.014803533,0.193041494
148569,1682211420,522244202,-0.246984079,2.014486805,0.19325953
148570,1682211420,533204742,-0.246997319,2.014507673,0.193262066
148571,1682211420,542206085,-0.246968747,2.014442361,0.19339146
148572,1682211420,552401202,-0.24703043,2.01455794,0.19328494
148573,1682211420,563468923,-0.247012912,2.014510232,0.193237422
148574,1682211420,572056229,-0.246952539,2.014434711,0.193177702
148575,1682211420,582870488,-0.246996677,2.014465836,0.193215754
148576,1682211420,592425307,-0.246978015,2.014468283,0.193217808
148577,1682211420,602273664,-0.246974059,2.01439093,0.193383663
148578,1682211420,612127260,-0.247000796,2.014605505,0.192971019
148579,1682211420,621974150,-0.247032403,2.014573846,0.192998528
148580,1682211420,631933012,-0.246965195,2.014479216,0.19319358
148581,1682211420,642025977,-0.246956136,2.014462856,0.19318197
148582,1682211420,652137997,-0.246919316,2.014385747,0.193332453
148583,1682211420,662456972,-0.246964001,2.014441472,0.193142226
148584,1682211420,672310882,-0.246910743,2.01439746,0.193351351
148585,1682211420,682809547,-0.246878883,2.014362127,0.193170979
148586,1682211420,692351728,-0.246911996,2.014401432,0.193258006
148587,1682211420,702184758,-0.246943036,2.014426704,0.193171428
148588,1682211420,712143399,-0.246907192,2.01443708,0.192981746
148589,1682211420,722550500,-0.246940023,2.014476297,0.193174981
148590,1682211420,733122663,-0.247054627,2.014740265,0.193075471
148591,1682211420,742452015,-0.246880523,2.014517284,0.193039486
148592,1682211420,752359998,-0.246939702,2.014462423,0.193129446
148593,1682211420,762192993,-0.246923323,2.014366147,0.193309825
148594,1682211420,773683473,-0.24695093,2.014436457,0.193149602
148595,1682211420,784031622,-0.246956559,2.014434302,0.19319121
148596,1682211420,792542015,-0.246887224,2.014485117,0.193089156
148597,1682211420,812487117,-0.246999663,2.014603385,0.193205668
148598,1682211420,832948344,-0.247092554,2.014523316,0.193029535
148599,1682211420,843123541,-0.246933535,2.014461301,0.193128332
148600,1682211420,853720940,-0.246907641,2.014373125,0.193275247
148601,1682211420,865519117,-0.247068617,2.014740947,0.193062918
148602,1682211420,882594729,-0.24700275,2.014549952,0.192953526
148603,1682211420,892306229,-0.246897459,2.014337923,0.193280034
148604,1682211420,903171308,-0.24691935,2.014521596,0.193110431
148605,1682211420,911093674,-0.247107607,2.01484105,0.192807474
148606,1682211420,921812508,-0.246943995,2.014496908,0.193123341
148607,1682211420,932652872,-0.24685163,2.014368381,0.193218815
148608,1682211420,942980628,-0.247144262,2.014789231,0.192843114
148609,1682211420,971624283,-0.247015874,2.014539137,0.192757808
148610,1682211420,982254181,-0.247011048,2.014548179,0.19297981
148611,1682211420,990510853,-0.246896693,2.014384336,0.193289863
148612,1682211421,863829,-0.246903854,2.014430016,0.193140647
148613,1682211421,11333821,-0.246971342,2.014702175,0.192888794
148614,1682211421,22593405,-0.24694773,2.014444028,0.19314248
148615,1682211421,31484990,-0.246961206,2.014445598,0.193186785
148616,1682211421,41592536,-0.246925342,2.014406749,0.193267316
148617,1682211421,50841175,-0.246885962,2.014364452,0.193295359
148618,1682211421,61482683,-0.246948388,2.014503106,0.193137377
148619,1682211421,71918265,-0.246968055,2.014584756,0.192789769
148620,1682211421,81977227,-0.246966565,2.014448959,0.193191118
148621,1682211421,94137463,-0.246966688,2.014475528,0.19321567
148622,1682211421,102389401,-0.246978822,2.014492488,0.193229319
148623,1682211421,111996551,-0.24695478,2.014507594,0.193218955
148624,1682211421,122498223,-0.247045102,2.014474781,0.193264938
148625,1682211421,132646993,-0.246948578,2.014443141,0.193242674
148626,1682211421,142659157,-0.247002313,2.014534087,0.193057851
148627,1682211421,152198778,-0.246931681,2.014433208,0.193401297
148628,1682211421,162166532,-0.246987228,2.014530553,0.193176013
148629,1682211421,172216231,-0.247040306,2.014735968,0.193035146
148630,1682211421,183280450,-0.24710867,2.014773339,0.193149117
148631,1682211421,192505198,-0.247081676,2.014761718,0.193154922
148632,1682211421,202527129,-0.247076077,2.014762319,0.193160875
148633,1682211421,212400007,-0.247072779,2.014670876,0.193308019
148634,1682211421,222859549,-0.247115961,2.014773914,0.193202427
148635,1682211421,233828065,-0.247144431,2.014842234,0.193093021
148636,1682211421,242265977,-0.247176795,2.014889207,0.192756925
148637,1682211421,253725570,-0.246990323,2.014455516,0.193404553
148638,1682211421,262551165,-0.24693688,2.014476194,0.193334087
148639,1682211421,273657713,-0.24697876,2.014516697,0.193386997
148640,1682211421,282316048,-0.247004826,2.014522864,0.193366588
148641,1682211421,293664259,-0.247025841,2.014577318,0.193373375
148642,1682211421,302578293,-0.247037479,2.014548624,0.193381643
148643,1682211421,312685310,-0.24700639,2.014487772,0.193572919
148644,1682211421,322253576,-0.247029843,2.014448674,0.193576593
148645,1682211421,332637497,-0.247170234,2.01466012,0.193390974
148646,1682211421,342470574,-0.247049472,2.014508692,0.193669785
148647,1682211421,353468448,-0.247198091,2.014781785,0.19317206
148648,1682211421,362476271,-0.247049803,2.014551921,0.193487732
148649,1682211421,372657493,-0.247030321,2.014561095,0.193588803
148650,1682211421,383111101,-0.247042843,2.014526747,0.193661316
148651,1682211421,392246051,-0.247110494,2.014578756,0.193559544
148652,1682211421,402685073,-0.247059771,2.014484219,0.193742264
148653,1682211421,412737310,-0.246915566,2.014392507,0.193850588
148654,1682211421,422907692,-0.24707295,2.014486593,0.193816979
148655,1682211421,432865397,-0.247089661,2.014470671,0.193910023
148656,1682211421,442467580,-0.247077695,2.014440829,0.193923329
148657,1682211421,453707436,-0.247230092,2.014743274,0.193735689
148658,1682211421,464129824,-0.247149184,2.014509283,0.193871911
148659,1682211421,472578794,-0.246981608,2.014377178,0.19423466
148660,1682211421,483035475,-0.247037797,2.014463102,0.194175834
148661,1682211421,492634817,-0.24726499,2.014663113,0.193833023
148662,1682211421,502736041,-0.247032779,2.014449961,0.194233521
148663,1682211421,513646599,-0.246988986,2.014438086,0.194284703
148664,1682211421,522475520,-0.24694896,2.014486611,0.19431709
148665,1682211421,532482741,-0.24707043,2.014692173,0.194065514
148666,1682211421,542621267,-0.246921767,2.014384801,0.194428827
148667,1682211421,552470390,-0.246969662,2.014463282,0.194198355
148668,1682211421,562621897,-0.246862972,2.014422382,0.194503805
148669,1682211421,572858605,-0.246922188,2.014453503,0.194561732
148670,1682211421,583943835,-0.246916845,2.014468005,0.194623767
148671,1682211421,592576803,-0.246751185,2.014251512,0.194935629
148672,1682211421,602666107,-0.246760679,2.014229894,0.194872944
148673,1682211421,613328002,-0.246778324,2.014355307,0.194938533
148674,1682211421,623540089,-0.246838571,2.014336122,0.194999902
148675,1682211421,632790257,-0.246782697,2.01429639,0.195081447
148676,1682211421,642506579,-0.246709915,2.014222409,0.195264825
148677,1682211421,652870712,-0.246741771,2.014297773,0.195298562
148678,1682211421,662868817,-0.246720006,2.014229627,0.195320118
148679,1682211421,672358720,-0.246717085,2.014116603,0.195453111
148680,1682211421,683059167,-0.246691395,2.01417418,0.195465991
148681,1682211421,692686484,-0.246622806,2.014108852,0.19555907
148682,1682211421,702943742,-0.246667766,2.01420337,0.195744654
148683,1682211421,712623918,-0.246781887,2.014302706,0.195511616
148684,1682211421,722346598,-0.246515031,2.014130106,0.195690882
148685,1682211421,732672894,-0.246486956,2.014093511,0.195976282
148686,1682211421,743411606,-0.246450512,2.013939368,0.196149965
148687,1682211421,752777716,-0.246412532,2.013989525,0.196193929
148688,1682211421,762988461,-0.246462232,2.014036592,0.196127215
148689,1682211421,772261276,-0.24641889,2.013868537,0.196325373
148690,1682211421,783138718,-0.246408114,2.01389575,0.196425134
148691,1682211421,792393010,-0.246407903,2.013886506,0.196530225
148692,1682211421,802702025,-0.246352249,2.013848714,0.196607409
148693,1682211421,813621101,-0.246253649,2.013760772,0.196807187
148694,1682211421,823208686,-0.2463359,2.013944675,0.196732087
148695,1682211421,833132715,-0.246247308,2.013845195,0.197024154
148696,1682211421,842333005,-0.246333968,2.013917782,0.197053501
148697,1682211421,853434619,-0.246283521,2.01393484,0.19710825
148698,1682211421,865663994,-0.246206552,2.013893533,0.19736339
148699,1682211421,872832301,-0.246140603,2.013828788,0.1974845
148700,1682211421,882876899,-0.246137696,2.013859365,0.197541685
148701,1682211421,892484364,-0.246036849,2.013848564,0.197906863
148702,1682211421,905169724,-0.246008441,2.013759506,0.197834528
148703,1682211421,912334210,-0.246130081,2.01393496,0.197649353
148704,1682211421,924071822,-0.246223871,2.01400565,0.197665547
148705,1682211421,932374688,-0.246230092,2.014160149,0.197838069
148706,1682211421,942367417,-0.246162242,2.014089663,0.198083321
148707,1682211421,953403987,-0.246083502,2.014123483,0.198257137
148708,1682211421,963351442,-0.246151503,2.014047492,0.198335398
148709,1682211421,973158902,-0.246279432,2.014118182,0.198362567
148710,1682211421,982653822,-0.246208307,2.014112068,0.198561573
148711,1682211421,992276651,-0.246197624,2.013998096,0.198748814
148712,1682211422,2387176,-0.246757819,2.013709226,0.19838707
148713,1682211422,12499945,-0.246857163,2.013800787,0.198312305
148714,1682211422,22410296,-0.246799176,2.013709197,0.198510699
148715,1682211422,35290853,-0.246822143,2.013698005,0.198661158
148716,1682211422,44846403,-0.246862744,2.013834991,0.198557344
148717,1682211422,53318912,-0.246858402,2.013784669,0.198745152
148718,1682211422,64102993,-0.246906989,2.013780255,0.198922596
148719,1682211422,72182757,-0.246934335,2.013654924,0.199063544
148720,1682211422,82288835,-0.246939594,2.013634781,0.19922429
148721,1682211422,93237690,-0.246386058,2.013761029,0.20018103
148722,1682211422,102256341,-0.246444802,2.013865634,0.200579334
148723,1682211422,113161381,-0.246292964,2.01339138,0.200945056
148724,1682211422,122405839,-0.246312883,2.013396708,0.201174335
148725,1682211422,132752530,-0.246494708,2.013557624,0.201159701
148726,1682211422,142513764,-0.246579039,2.013556611,0.201479639
148727,1682211422,152513378,-0.246677689,2.013590651,0.201757613
148728,1682211422,163676650,-0.246639566,2.013490572,0.202173692
148729,1682211422,172731208,-0.24670039,2.013541551,0.202361723
148730,1682211422,184818782,-0.246721984,2.013434751,0.202752246
148731,1682211422,192266302,-0.24675563,2.0134581,0.20280816
148732,1682211422,202193113,-0.246963896,2.013577705,0.202749217
148733,1682211422,213216192,-0.247022962,2.013540854,0.203032835
148734,1682211422,224706724,-0.247176802,2.013609421,0.203262882
148735,1682211422,232314566,-0.247435637,2.01369714,0.203570259
148736,1682211422,242416007,-0.247686661,2.013764257,0.203706512
148737,1682211422,252778280,-0.247920414,2.013766036,0.204071294
148738,1682211422,262454721,-0.248075027,2.01378666,0.204481732
148739,1682211422,272517272,-0.248483349,2.014021707,0.204593801
148740,1682211422,283698150,-0.248749589,2.014010798,0.205188245
148741,1682211422,292651071,-0.249233766,2.014357666,0.205353715
148742,1682211422,302793189,-0.249597032,2.014270923,0.205985822
148743,1682211422,312225802,-0.250060249,2.014441517,0.206399519
148744,1682211422,322234722,-0.250426007,2.014409596,0.207034777
148745,1682211422,332478853,-0.250641648,2.014399933,0.20792483
148746,1682211422,343815627,-0.251071104,2.014358705,0.208541435
148747,1682211422,352419572,-0.251281276,2.01400255,0.20941267
148748,1682211422,363324786,-0.251741447,2.013946255,0.210105622
148749,1682211422,372104635,-0.252279406,2.013989466,0.210987777
148750,1682211422,384108203,-0.252713304,2.013875276,0.211958555
148751,1682211422,392400651,-0.253229801,2.013941247,0.212906147
148752,1682211422,402575310,-0.253669696,2.014031336,0.214117459
148753,1682211422,412463888,-0.254218138,2.013865001,0.215185598
148754,1682211422,422566224,-0.254652025,2.0137182,0.216387489
148755,1682211422,432639545,-0.255471419,2.013763951,0.217934462
148756,1682211422,442174498,-0.256162272,2.013509872,0.219137944
148757,1682211422,452274152,-0.257191088,2.013795338,0.22063998
148758,1682211422,462219360,-0.2578292,2.013624849,0.222466221
148759,1682211422,472993646,-0.258646232,2.013593063,0.224221809
148760,1682211422,484808003,-0.259628984,2.013433617,0.226043457
148761,1682211422,492249112,-0.260605452,2.013369385,0.228123916
148762,1682211422,502694521,-0.261551919,2.01293762,0.230468309
148763,1682211422,512239321,-0.262891147,2.013184696,0.232495972
148764,1682211422,524182955,-0.264093905,2.012536803,0.234773715
148765,1682211422,532914446,-0.26564096,2.01236056,0.23666551
148766,1682211422,543030919,-0.266876214,2.011856333,0.239218411
148767,1682211422,552524784,-0.268074583,2.011544277,0.241798394
148768,1682211422,562591616,-0.269193298,2.011074699,0.245060282
148769,1682211422,572372579,-0.270420475,2.01068872,0.248296604
148770,1682211422,582571821,-0.271753465,2.010464166,0.251234455
148771,1682211422,592774001,-0.27328483,2.010417763,0.254164135
148772,1682211422,602342986,-0.274510765,2.009818376,0.257515517
148773,1682211422,612284258,-0.276032426,2.009250435,0.261012391
148774,1682211422,622439695,-0.277444186,2.008793901,0.264600286
148775,1682211422,634403023,-0.28004896,2.008909528,0.266957548
148776,1682211422,642447137,-0.282073086,2.008900588,0.270111866
148777,1682211422,652974198,-0.283420333,2.008133423,0.274339408
148778,1682211422,662199567,-0.284875325,2.007744451,0.278296103
148779,1682211422,673493152,-0.28669174,2.007385468,0.281814316
148780,1682211422,682253273,-0.288525698,2.006873666,0.285650485
148781,1682211422,692414589,-0.290342704,2.005818669,0.289448011
148782,1682211422,702415166,-0.291479964,2.005871134,0.294257589
148783,1682211422,712251850,-0.293419369,2.005313958,0.298034622
148784,1682211422,722237735,-0.295236787,2.004774688,0.301609298
148785,1682211422,733541452,-0.297158198,2.004233037,0.305651035
148786,1682211422,742200929,-0.298892777,2.003502957,0.309755208
148787,1682211422,752607050,-0.300764807,2.003099856,0.313664373
148788,1682211422,762425987,-0.303266452,2.002006958,0.316864268
148789,1682211422,772935379,-0.304662759,2.001059593,0.321247851
148790,1682211422,783863107,-0.307084392,2.001201386,0.324913763
148791,1682211422,792237841,-0.308949034,2.000589237,0.328860663
148792,1682211422,803140759,-0.31090411,2.000033608,0.33266348
148793,1682211422,812474021,-0.312775538,1.998947128,0.336716659
148794,1682211422,822297085,-0.314244677,1.999082235,0.341135857
148795,1682211422,832245390,-0.316999132,1.997980473,0.343938372
148796,1682211422,842927737,-0.318537517,1.997514876,0.34813155
148797,1682211422,852961942,-0.320341892,1.996796543,0.352330558
148798,1682211422,862559398,-0.32251819,1.996490975,0.355679771
148799,1682211422,872735336,-0.324085035,1.995448876,0.359992978
148800,1682211422,883281412,-0.325826268,1.994455262,0.364109046
148801,1682211422,892635489,-0.327695748,1.994182343,0.367991029
148802,1682211422,902471353,-0.329526911,1.993362672,0.371712704
148803,1682211422,912649801,-0.33132459,1.992972089,0.375503924
148804,1682211422,922693790,-0.332568526,1.992617539,0.380381576
148805,1682211422,932611333,-0.334434198,1.992049014,0.384105936
148806,1682211422,943050044,-0.336287096,1.991443816,0.388023142
148807,1682211422,953494202,-0.338927515,1.990437772,0.39065567
148808,1682211422,963240929,-0.340379204,1.989665839,0.395048951
148809,1682211422,972429655,-0.342080541,1.989016736,0.398812894
148810,1682211422,982585809,-0.343263143,1.989053446,0.403372726
148811,1682211422,992864603,-0.3449779,1.988351981,0.407136021
148812,1682211423,2553315,-0.34715493,1.987209437,0.410215844
148813,1682211423,12634070,-0.348728001,1.986791056,0.414109469
148814,1682211423,22702004,-0.350419288,1.985969756,0.417838453
148815,1682211423,33553347,-0.351717812,1.985519798,0.421807378
148816,1682211423,42261276,-0.353497423,1.985092058,0.425319014
148817,1682211423,52474718,-0.354780761,1.98423937,0.429317484
148818,1682211423,62412508,-0.356615657,1.983968937,0.432689816
148819,1682211423,72481380,-0.357940314,1.983127472,0.436780692
148820,1682211423,82283359,-0.359407364,1.982674295,0.440320163
148821,1682211423,92652791,-0.360862449,1.98218628,0.444047587
148822,1682211423,103155693,-0.36236137,1.981725963,0.447694522
148823,1682211423,112858004,-0.363818017,1.981296683,0.451600209
148824,1682211423,122480513,-0.365342059,1.980930882,0.45520083
148825,1682211423,132406158,-0.366727393,1.980097308,0.458949434
148826,1682211423,142512780,-0.367893073,1.979358327,0.462896112
148827,1682211423,152613602,-0.369259735,1.97933881,0.466412025
148828,1682211423,163128692,-0.370578325,1.978781518,0.470326579
148829,1682211423,172801340,-0.372024811,1.978591093,0.473797873
148830,1682211423,182440629,-0.373145452,1.977729278,0.478091764
148831,1682211423,192670643,-0.374304765,1.977492369,0.482049592
148832,1682211423,202647583,-0.375765216,1.977216788,0.485485289
148833,1682211423,212378297,-0.376400658,1.976480011,0.489847484
148834,1682211423,222701033,-0.377614612,1.976210219,0.493676668
148835,1682211423,232751833,-0.378756618,1.975723953,0.497523702
148836,1682211423,242911902,-0.379834664,1.975258608,0.501389029
148837,1682211423,252772158,-0.381045629,1.975074511,0.505094235
148838,1682211423,262361608,-0.381829627,1.974574767,0.508924428
148839,1682211423,272575003,-0.383098615,1.974226853,0.512604634
148840,1682211423,282369506,-0.384200732,1.973811346,0.516337344
148841,1682211423,293887589,-0.385224877,1.973509338,0.52013526
148842,1682211423,302542276,-0.38602296,1.973185668,0.524108678
148843,1682211423,313206690,-0.38700086,1.973140985,0.52764404
148844,1682211423,322539502,-0.387896713,1.972686957,0.531407634
148845,1682211423,332622842,-0.389035048,1.972211841,0.534763299
148846,1682211423,342179417,-0.389682149,1.972139857,0.538975399
148847,1682211423,353089278,-0.390140943,1.971777737,0.543272939
148848,1682211423,362391628,-0.390939215,1.97141289,0.546972404
148849,1682211423,372258872,-0.3918337,1.97116276,0.550891201
148850,1682211423,382537566,-0.39261347,1.970719638,0.55473399
148851,1682211423,392742893,-0.393436399,1.97033293,0.558357637
148852,1682211423,402611303,-0.394201171,1.969990632,0.562444672
148853,1682211423,412297369,-0.395018975,1.969650784,0.566192136
148854,1682211423,422415779,-0.395688745,1.969262599,0.570133424
148855,1682211423,432786957,-0.396614204,1.96876579,0.573986582
148856,1682211423,442147695,-0.39725456,1.968433,0.578053065
148857,1682211423,452772412,-0.397825466,1.968041528,0.581889719
148858,1682211423,462385929,-0.398722583,1.967667313,0.585825029
148859,1682211423,473002063,-0.399356542,1.967310627,0.589852295
148860,1682211423,482660711,-0.400011198,1.966847166,0.593886407
148861,1682211423,492285687,-0.400631271,1.966458099,0.597954637
148862,1682211423,503127250,-0.401291025,1.966415357,0.60194186
148863,1682211423,512833081,-0.401973192,1.966143862,0.606029887
148864,1682211423,523017503,-0.40240335,1.965822579,0.610415144
148865,1682211423,533363024,-0.403139709,1.965267857,0.614163448
148866,1682211423,543404509,-0.403748509,1.965089183,0.618467937
148867,1682211423,554562116,-0.404348278,1.964718845,0.62251929
148868,1682211423,562466076,-0.404910631,1.964165904,0.626653164
148869,1682211423,572655965,-0.405173893,1.963860664,0.631087815
148870,1682211423,583023037,-0.405908554,1.96368137,0.635238473
148871,1682211423,593994370,-0.406282969,1.963294778,0.639649091
148872,1682211423,602193069,-0.406922913,1.962968916,0.643898482
148873,1682211423,612372880,-0.407372115,1.962688848,0.64831212
148874,1682211423,622430984,-0.407941641,1.962171068,0.652595458
148875,1682211423,632863872,-0.408300502,1.96202671,0.656967855
148876,1682211423,643298089,-0.408840974,1.961815511,0.661568066
148877,1682211423,652591804,-0.409269606,1.9615119,0.66609177
148878,1682211423,662360581,-0.409585983,1.961131787,0.670703401
148879,1682211423,672761511,-0.410003464,1.960720115,0.675341852
148880,1682211423,682695089,-0.410404912,1.960530353,0.679927977
148881,1682211423,693626715,-0.410836145,1.960211954,0.684411436
148882,1682211423,702142643,-0.41113613,1.959917694,0.689214468
148883,1682211423,713831074,-0.411483316,1.959586505,0.693894222
148884,1682211423,721843642,-0.411908941,1.959093582,0.698410344
148885,1682211423,731921871,-0.412185287,1.959081054,0.7031112
148886,1682211423,741993853,-0.412344763,1.958807784,0.70801269
148887,1682211423,752659017,-0.412706883,1.958565321,0.712778819
148888,1682211423,761883007,-0.412908156,1.958384362,0.717293465
148889,1682211423,771968278,-0.413217214,1.958145173,0.72236825
148890,1682211423,782187065,-0.41333723,1.95780169,0.727261699
148891,1682211423,791873963,-0.413392459,1.957472591,0.731969922
148892,1682211423,803692582,-0.413592423,1.957359723,0.736876666
148893,1682211423,811848501,-0.413677132,1.957045053,0.741772632
148894,1682211423,821843524,-0.413720776,1.957219076,0.746461835
148895,1682211423,832075098,-0.413909152,1.957144191,0.751307683
148896,1682211423,842082454,-0.413944864,1.957147089,0.756200986
148897,1682211423,852680807,-0.413724951,1.95669156,0.761074763
148898,1682211423,861976674,-0.413873019,1.956707616,0.765999477
148899,1682211423,872107191,-0.413825122,1.956420983,0.770802008
148900,1682211423,882224185,-0.413689386,1.956393805,0.775673917
148901,1682211423,892471566,-0.413495533,1.956618371,0.780500454
148902,1682211423,902402825,-0.413424163,1.956532503,0.785343589
148903,1682211423,912482758,-0.413336821,1.956497257,0.790120823
148904,1682211423,923746518,-0.413144714,1.956528726,0.795027294
148905,1682211423,932113559,-0.412780559,1.956261664,0.800030986
148906,1682211423,942144131,-0.412529529,1.956335692,0.805045202
148907,1682211423,952464340,-0.412301501,1.956551486,0.809759586
148908,1682211423,962815766,-0.412061156,1.956382832,0.814692188
148909,1682211423,972555497,-0.411579606,1.95647732,0.819642685
148910,1682211423,983057640,-0.411189819,1.956548396,0.824595108
148911,1682211423,992395193,-0.410896848,1.956410574,0.829502233
148912,1682211424,2671820,-0.410449398,1.956450552,0.834523977
148913,1682211424,12469679,-0.409957129,1.956922191,0.8393223
148914,1682211424,23270412,-0.409645132,1.957100162,0.844190072
148915,1682211424,32888903,-0.409097346,1.957108878,0.849047486
148916,1682211424,42886732,-0.40871835,1.957317778,0.853969396
148917,1682211424,52530002,-0.408032284,1.957173432,0.859053208
148918,1682211424,64412216,-0.407338163,1.957458632,0.864066074
148919,1682211424,72333220,-0.406623919,1.957512664,0.86895531
148920,1682211424,82821434,-0.406018,1.957763003,0.873914721
148921,1682211424,92301706,-0.405286271,1.95786096,0.878988451
148922,1682211424,102284989,-0.40459972,1.958141521,0.883696467
148923,1682211424,114106913,-0.403708315,1.958238033,0.888907786
148924,1682211424,123585563,-0.403267739,1.958317012,0.893568996
148925,1682211424,132425844,-0.402354853,1.958776411,0.898508317
148926,1682211424,142344149,-0.401127307,1.958841483,0.903724076
148927,1682211424,153324515,-0.400273339,1.958795023,0.908858262
148928,1682211424,163528931,-0.399329113,1.959202451,0.913595369
148929,1682211424,172320134,-0.398421134,1.959423129,0.918584165
148930,1682211424,182249249,-0.397430331,1.959626199,0.923529227
148931,1682211424,192613975,-0.396676481,1.960120516,0.928081066
148932,1682211424,202636975,-0.39557979,1.960685162,0.932924754
148933,1682211424,212239342,-0.394235212,1.960567876,0.93817691
148934,1682211424,223218279,-0.393589939,1.960795583,0.942690806
148935,1682211424,232855024,-0.392432403,1.961138264,0.947586611
148936,1682211424,242309874,-0.390929326,1.961262812,0.952667269
148937,1682211424,253190974,-0.39015753,1.962085263,0.957235814
148938,1682211424,262457044,-0.388685238,1.962264894,0.962314289
148939,1682211424,272634799,-0.387530147,1.962461689,0.967194519
148940,1682211424,282263393,-0.386297738,1.962806375,0.971942231
148941,1682211424,292327296,-0.38521114,1.962861029,0.976622717
148942,1682211424,303872017,-0.384098201,1.96330724,0.981470542
148943,1682211424,312401023,-0.382739727,1.964005365,0.986315348
148944,1682211424,322630365,-0.38144726,1.963972994,0.991152142
148945,1682211424,332543040,-0.380143992,1.964518314,0.995817019
148946,1682211424,342139929,-0.378968859,1.965002394,1.000707416
148947,1682211424,352435322,-0.377599812,1.965206248,1.00547478
148948,1682211424,362374018,-0.376292948,1.965645949,1.010407667
148949,1682211424,372478433,-0.375093828,1.966309152,1.015135432
148950,1682211424,382299820,-0.373689582,1.966198276,1.020032295
148951,1682211424,394062920,-0.372422871,1.96694262,1.02486138
148952,1682211424,402292469,-0.371086826,1.967473041,1.029612094
148953,1682211424,412736728,-0.370059943,1.967828794,1.034311157
148954,1682211424,422495139,-0.368404135,1.968266904,1.039513218
148955,1682211424,433738606,-0.367120012,1.968754702,1.044281942
148956,1682211424,442149888,-0.365732734,1.969347674,1.049238251
148957,1682211424,452295257,-0.364336353,1.969635861,1.054191109
148958,1682211424,462815551,-0.363044891,1.970111779,1.058867411
148959,1682211424,472192548,-0.361769411,1.970335182,1.063754517
148960,1682211424,483937142,-0.360301,1.970962956,1.068759913
148961,1682211424,492668954,-0.358965044,1.971387804,1.073599539
148962,1682211424,502318876,-0.357504112,1.971958646,1.078597346
148963,1682211424,512835592,-0.356185424,1.97233615,1.083482288
148964,1682211424,522527555,-0.354916152,1.972911942,1.088443001
148965,1682211424,533858132,-0.353449932,1.973202202,1.093525252
148966,1682211424,542863334,-0.352036302,1.973885936,1.098370562
148967,1682211424,552531334,-0.350756863,1.974310656,1.103342251
148968,1682211424,563468760,-0.349272126,1.974855242,1.108208392
148969,1682211424,572507785,-0.347962375,1.975473313,1.113180251
148970,1682211424,582451911,-0.346623836,1.975666553,1.118192181
148971,1682211424,592570623,-0.345209981,1.97631961,1.123297605
148972,1682211424,602770447,-0.343880449,1.976842659,1.128216121
148973,1682211424,612377804,-0.342460661,1.977343167,1.133200109
148974,1682211424,622746079,-0.341122608,1.977821986,1.138225613
148975,1682211424,633264817,-0.339904467,1.978396331,1.143098153
148976,1682211424,642467380,-0.338454469,1.978818685,1.148205908
148977,1682211424,652907510,-0.337064511,1.979323659,1.153219684
148978,1682211424,662517634,-0.335919877,1.979784944,1.158225585
148979,1682211424,672548106,-0.33444829,1.98029344,1.163242315
148980,1682211424,682372903,-0.333198229,1.980893079,1.168148069
148981,1682211424,693286686,-0.331866632,1.981169084,1.173267272
148982,1682211424,703721160,-0.330607654,1.981366383,1.178291218
148983,1682211424,712547807,-0.329343422,1.982038689,1.183259775
148984,1682211424,722452287,-0.328000506,1.982680222,1.188196861
148985,1682211424,732345748,-0.326772868,1.983026555,1.193092314
148986,1682211424,742408836,-0.325418052,1.983444627,1.198103805
148987,1682211424,752534768,-0.324093167,1.983956468,1.202834458
148988,1682211424,763821158,-0.32286802,1.98439631,1.207432483
148989,1682211424,773007554,-0.321613659,1.984894361,1.212211844
148990,1682211424,782157962,-0.320400634,1.985531511,1.216494854
148991,1682211424,792804801,-0.319189906,1.985778508,1.220971048
148992,1682211424,802444641,-0.317890038,1.986355273,1.225243579
148993,1682211424,812195986,-0.316724566,1.98696207,1.229384715
148994,1682211424,822997414,-0.31552266,1.987183959,1.233527383
148995,1682211424,833422455,-0.314233614,1.987465296,1.237560479
148996,1682211424,842362587,-0.313130481,1.987873417,1.241355797
148997,1682211424,852265234,-0.311887077,1.988426836,1.245174998
148998,1682211424,862863782,-0.31072037,1.988962959,1.248839171
148999,1682211424,872901585,-0.309424026,1.989434202,1.25258132
149000,1682211424,882595363,-0.308330175,1.989757557,1.256117791
149001,1682211424,892243400,-0.30715006,1.990298703,1.25958522
149002,1682211424,903318103,-0.305946817,1.990624441,1.263168685
149003,1682211424,912430804,-0.304874013,1.990945387,1.266602228
149004,1682211424,922219794,-0.303682659,1.991590871,1.269873676
149005,1682211424,932228963,-0.302504215,1.992003503,1.273290019
149006,1682211424,942591200,-0.30134646,1.992399129,1.276493459
149007,1682211424,952903613,-0.300192704,1.992746775,1.279717911
149008,1682211424,962755914,-0.299110137,1.993011431,1.282811975
149009,1682211424,972290219,-0.297916903,1.993460264,1.286069293
149010,1682211424,982261416,-0.296918377,1.993779911,1.289103246
149011,1682211424,992656153,-0.296183176,1.994212028,1.291705869
149012,1682211425,2505070,-0.295075002,1.994483594,1.294840475
149013,1682211425,12325933,-0.293958466,1.994876024,1.297846604
149014,1682211425,22441806,-0.292842197,1.995135757,1.300803258
149015,1682211425,32500812,-0.291772086,1.995554626,1.303683786
149016,1682211425,42317453,-0.290650892,1.995935206,1.306716342
149017,1682211425,52193105,-0.289601465,1.996334599,1.309607752
149018,1682211425,62521779,-0.288564555,1.996733593,1.312384301
149019,1682211425,73586275,-0.287512585,1.996956151,1.315344261
149020,1682211425,82478453,-0.28636157,1.997160647,1.31822792
149021,1682211425,92521216,-0.28530062,1.997450845,1.321030256
149022,1682211425,102553511,-0.284362191,1.997892985,1.323737325
149023,1682211425,113199000,-0.283349808,1.998197762,1.326443824
149024,1682211425,122959778,-0.282315851,1.998653702,1.329124725
149025,1682211425,134956436,-0.281221032,1.998922905,1.33202594
149026,1682211425,143026675,-0.280168945,1.999142572,1.334709977
149027,1682211425,153307826,-0.279198047,1.999358422,1.337494909
149028,1682211425,162762560,-0.278055972,1.999681271,1.340215769
149029,1682211425,172066610,-0.277165691,2.000081966,1.342809223
149030,1682211425,182549075,-0.276170646,2.000368497,1.345444678
149031,1682211425,192619755,-0.275097322,2.000586182,1.347980107
149032,1682211425,203331983,-0.274443916,2.001079501,1.350498589
149033,1682211425,212333500,-0.273358927,2.001355966,1.353142671
149034,1682211425,222141404,-0.272311237,2.00158761,1.355765103
149035,1682211425,232519014,-0.27131423,2.001833985,1.358283111
149036,1682211425,242191941,-0.270374247,2.002184008,1.36080038
149037,1682211425,252223972,-0.269462737,2.002421345,1.363374759
149038,1682211425,262367321,-0.268588836,2.002742595,1.365795842
149039,1682211425,272344101,-0.26753446,2.002843207,1.368308406
149040,1682211425,284263558,-0.266569624,2.00328441,1.370783172
149041,1682211425,292181035,-0.265644057,2.003627004,1.373280365
149042,1682211425,303417041,-0.264729635,2.003881624,1.375714855
149043,1682211425,314306269,-0.263699714,2.003383599,1.376606491
149044,1682211425,323424123,-0.262701909,2.003586691,1.379068424
149045,1682211425,332714601,-0.26176966,2.003898707,1.381444449
149046,1682211425,343234797,-0.260771853,2.004079505,1.383719381
149047,1682211425,353825519,-0.260060473,2.004574613,1.3860247
149048,1682211425,362576046,-0.259112837,2.004797848,1.388253895
149049,1682211425,373471816,-0.258167381,2.005054342,1.390532131
149050,1682211425,382508545,-0.257210559,2.005263292,1.392831016
149051,1682211425,393533366,-0.256348718,2.005595036,1.394939357
149052,1682211425,402629432,-0.255785608,2.006324079,1.398496367
149053,1682211425,412616555,-0.254795759,2.006578432,1.400473807
149054,1682211425,423753948,-0.253665828,2.006180697,1.401353863
149055,1682211425,432794655,-0.252870965,2.006517288,1.403388654
149056,1682211425,443171688,-0.252182557,2.007180312,1.406155357
149057,1682211425,452940661,-0.251199769,2.007256082,1.408361369
149058,1682211425,463728100,-0.250371464,2.007457816,1.410155478
149059,1682211425,472693713,-0.249306772,2.007456232,1.411215074
149060,1682211425,482100255,-0.248421678,2.007778854,1.413014877
149061,1682211425,492095630,-0.247743424,2.008152308,1.415772312
149062,1682211425,502315652,-0.24690477,2.008467349,1.417535893
149063,1682211425,514107021,-0.246054974,2.008612011,1.419408552
149064,1682211425,522516726,-0.245137586,2.008828883,1.421039174
149065,1682211425,531828155,-0.244070234,2.008829125,1.421911166
149066,1682211425,542623112,-0.243335853,2.00913531,1.423493186
149067,1682211425,555192209,-0.242470936,2.009302457,1.42509024
149068,1682211425,565397410,-0.241602684,2.00939682,1.426746716
149069,1682211425,572097959,-0.240811699,2.009668927,1.428238065
149070,1682211425,581483291,-0.240123354,2.009802326,1.429895228
149071,1682211425,592976392,-0.239200202,2.010074369,1.431357458
149072,1682211425,600907361,-0.238385085,2.010313579,1.432819156
149073,1682211425,612129209,-0.237580889,2.010466454,1.434217472
149074,1682211425,622341401,-0.236957695,2.010601807,1.435608088
149075,1682211425,634969159,-0.235996082,2.010823883,1.437101347
149076,1682211425,641593903,-0.23523974,2.011094866,1.438431796
149077,1682211425,651351565,-0.234466038,2.011303226,1.439706838
149078,1682211425,661030203,-0.233706464,2.011473244,1.441052664
149079,1682211425,671342568,-0.232993287,2.011750125,1.44225019
149080,1682211425,681065312,-0.232147876,2.01178575,1.443524203
149081,1682211425,695027178,-0.231353663,2.01197143,1.444699542
149082,1682211425,701721226,-0.230629904,2.012278515,1.445797241
149083,1682211425,711534865,-0.229922718,2.012439752,1.447019417
149084,1682211425,722536971,-0.229096631,2.012550493,1.448179013
149085,1682211425,731553568,-0.228437114,2.012820711,1.449060898
149086,1682211425,744427719,-0.227843277,2.012927696,1.45000983
149087,1682211425,752651934,-0.226971209,2.013144987,1.451073452
149088,1682211425,763812088,-0.226245769,2.013258481,1.452049065
149089,1682211425,772568771,-0.225567033,2.013444345,1.453014139
149090,1682211425,781644022,-0.224905397,2.013689866,1.45388462
149091,1682211425,794632137,-0.224173869,2.013923868,1.454682808
149092,1682211425,803530545,-0.223512585,2.014167692,1.455357617
149093,1682211425,811492754,-0.22276707,2.014173008,1.456313118
149094,1682211425,821653974,-0.222126437,2.014356442,1.457100983
149095,1682211425,832200859,-0.221417444,2.014661853,1.457782399
149096,1682211425,842142558,-0.220764816,2.014844392,1.458519762
149097,1682211425,852570655,-0.220071541,2.014985938,1.459192714
149098,1682211425,862792018,-0.219246845,2.015153216,1.459997245
149099,1682211425,874465000,-0.218733225,2.015227735,1.46055096
149100,1682211425,881975570,-0.218012489,2.015162622,1.461240713
149101,1682211425,891854711,-0.217290078,2.015330993,1.461921052
149102,1682211425,904734741,-0.216847022,2.015821338,1.462497826
149103,1682211425,912059784,-0.216227855,2.015985911,1.463053431
149104,1682211425,921791704,-0.215554153,2.016161009,1.463678903
149105,1682211425,931785715,-0.214929929,2.016324815,1.464170153
149106,1682211425,942076361,-0.214220569,2.01653819,1.46479189
149107,1682211425,952352442,-0.213685565,2.016695077,1.465401546
149108,1682211425,963889514,-0.213040685,2.016726306,1.466018091
149109,1682211425,973654466,-0.212464883,2.016912818,1.466512603
149110,1682211425,982288969,-0.211957142,2.01713009,1.467084824
149111,1682211425,992135113,-0.211273994,2.017313405,1.467625801
149112,1682211426,2841224,-0.210536754,2.017496547,1.468165298
149113,1682211426,12289000,-0.210180449,2.017781144,1.468718265
149114,1682211426,25376784,-0.209564957,2.017939186,1.469288422
149115,1682211426,33671527,-0.208960007,2.018195413,1.46989273
149116,1682211426,42355645,-0.20848695,2.018277988,1.470468174
149117,1682211426,53451017,-0.2079511,2.018462328,1.471040868
149118,1682211426,62379276,-0.207413189,2.018677335,1.471572502
149119,1682211426,75304931,-0.206829773,2.018835244,1.47228058
149120,1682211426,82439952,-0.206286876,2.019063513,1.472830766
149121,1682211426,92524468,-0.205757716,2.01926793,1.473450387
149122,1682211426,101662869,-0.20523395,2.019425078,1.474091077
149123,1682211426,111934014,-0.204688538,2.019641433,1.4747155
149124,1682211426,122525159,-0.204175585,2.019873883,1.475457615
149125,1682211426,131864414,-0.203648508,2.019930788,1.47619618
149126,1682211426,147722539,-0.203223441,2.020296715,1.476867162
149127,1682211426,152042479,-0.202700023,2.020394803,1.477632506
149128,1682211426,161820470,-0.202231757,2.020761496,1.478331548
149129,1682211426,171811716,-0.201722544,2.02078918,1.478999691
149130,1682211426,183839333,-0.201118648,2.020938759,1.479902378
149131,1682211426,193005381,-0.200650507,2.021180301,1.480587722
149132,1682211426,201842548,-0.200174144,2.021415764,1.481470228
149133,1682211426,212546497,-0.199713569,2.021751486,1.482169142
149134,1682211426,221521242,-0.199283109,2.022008494,1.482943575
149135,1682211426,232914709,-0.198780416,2.022025311,1.483797606
149136,1682211426,241462754,-0.198301602,2.022336781,1.48457057
149137,1682211426,251423084,-0.197846495,2.022713116,1.485319153
149138,1682211426,262058059,-0.197470319,2.02282157,1.486113936
149139,1682211426,272316731,-0.196922618,2.02307381,1.487108245
149140,1682211426,283193391,-0.196474104,2.023320196,1.487870084
149141,1682211426,292667106,-0.196071443,2.023541023,1.488621507
149142,1682211426,301512718,-0.195678199,2.02381833,1.489414134
149143,1682211426,312546820,-0.195079865,2.023979989,1.490331062
149144,1682211426,323638655,-0.194657549,2.024253022,1.491150123
149145,1682211426,331981020,-0.194219057,2.024557448,1.491949444
149146,1682211426,342532788,-0.193692046,2.024700177,1.492690266
149147,1682211426,353679067,-0.193317163,2.025046973,1.4934922
149148,1682211426,361450248,-0.192895347,2.025256759,1.494366452
149149,1682211426,389193787,-0.192060396,2.025875859,1.495821497
149150,1682211426,391323279,-0.191546736,2.0261849,1.496667016
149151,1682211426,408642315,-0.191236814,2.02629743,1.497301322
149152,1682211426,411782907,-0.190675832,2.02665794,1.498241239
149153,1682211426,420862969,-0.190346129,2.026822847,1.498784402
149154,1682211426,431207961,-0.189956241,2.027191645,1.499545262
149155,1682211426,440816477,-0.189519168,2.02747065,1.500208087
149156,1682211426,451288398,-0.189128242,2.027740076,1.500876757
149157,1682211426,461262990,-0.188789562,2.027873643,1.501508478
149158,1682211426,473588437,-0.188204524,2.02819939,1.502141982
149159,1682211426,482167646,-0.18790283,2.028589383,1.502732888
149160,1682211426,492394076,-0.187526129,2.028872409,1.503390478
149161,1682211426,504202654,-0.187163528,2.029200097,1.503952035
149162,1682211426,512991070,-0.186776655,2.02947037,1.504533683
149163,1682211426,521398269,-0.186224264,2.029637568,1.505222963
149164,1682211426,531824986,-0.186009859,2.030021309,1.505632542
149165,1682211426,541372784,-0.185556512,2.030274508,1.50608537
149166,1682211426,552461390,-0.185218953,2.030585308,1.506577067
149167,1682211426,562308576,-0.184887175,2.03096917,1.507032003
149168,1682211426,571189174,-0.184491609,2.031246969,1.507433375
149169,1682211426,581808255,-0.184145811,2.031558446,1.507804102
149170,1682211426,591778055,-0.183708676,2.031883965,1.508201211
149171,1682211426,602894002,-0.183426026,2.032071104,1.508554645
149172,1682211426,612232716,-0.183164114,2.032564257,1.508865916
149173,1682211426,622455372,-0.18280148,2.032678434,1.509155698
149174,1682211426,633022126,-0.182469687,2.032998698,1.509439824
149175,1682211426,643829356,-0.182035514,2.033375922,1.509752575
149176,1682211426,652673303,-0.181833528,2.033629588,1.509893946
149177,1682211426,662532628,-0.18145953,2.03390902,1.510038848
149178,1682211426,672379658,-0.181024998,2.034100986,1.510369713
149179,1682211426,682809689,-0.180737818,2.034361183,1.510550222
149180,1682211426,692369066,-0.180515482,2.034725792,1.510650569
149181,1682211426,703712750,-0.180219831,2.03502296,1.510765947
149182,1682211426,716038300,-0.17995513,2.035327108,1.510813977
149183,1682211426,722208166,-0.179576133,2.035613484,1.511037529
149184,1682211426,732396408,-0.179332144,2.03578108,1.510947232
149185,1682211426,742684758,-0.179054113,2.036167738,1.511031198
149186,1682211426,753719653,-0.17880142,2.036488117,1.511051921
149187,1682211426,762237852,-0.178560704,2.036736133,1.51103801
149188,1682211426,774527365,-0.178307414,2.036995525,1.51100339
149189,1682211426,782399871,-0.178057702,2.037227584,1.51096473
149190,1682211426,794518785,-0.177791885,2.037624948,1.510903183
149191,1682211426,802404017,-0.177551876,2.037765173,1.510919357
149192,1682211426,812214731,-0.177292205,2.037998451,1.510853629
149193,1682211426,822183319,-0.177059295,2.038223047,1.510792633
149194,1682211426,833283952,-0.176805569,2.03841076,1.510727831
149195,1682211426,842052941,-0.176575225,2.038727687,1.51049761
149196,1682211426,854328175,-0.176431645,2.038935473,1.510374117
149197,1682211426,862326888,-0.176085537,2.039128566,1.510315362
149198,1682211426,873728149,-0.175848021,2.039293579,1.510189438
149199,1682211426,882885746,-0.17562274,2.039565437,1.50996252
149200,1682211426,892867245,-0.175409037,2.039794003,1.509847472
149201,1682211426,902279047,-0.17515819,2.039938824,1.509648132
149202,1682211426,914060723,-0.174966689,2.040185008,1.509382733
149203,1682211426,922387656,-0.174756258,2.040405837,1.509146806
149204,1682211426,932387971,-0.174345816,2.040478272,1.509097074
149205,1682211426,942365975,-0.174198225,2.040614953,1.508882638
149206,1682211426,952584158,-0.173955173,2.040878909,1.508689836
149207,1682211426,962392038,-0.17369739,2.04096984,1.508430303
149208,1682211426,972558723,-0.173487138,2.041109906,1.508162599
149209,1682211426,982439055,-0.173230766,2.04120683,1.507935123
149210,1682211426,992637147,-0.172995812,2.041321818,1.507700936
149211,1682211427,2596977,-0.172759373,2.04153579,1.507357305
149212,1682211427,12550468,-0.172472571,2.041563495,1.507152747
149213,1682211427,22252287,-0.172174832,2.041624145,1.506890076
149214,1682211427,34036201,-0.171957602,2.04161134,1.506615088
149215,1682211427,42098319,-0.171737549,2.041701806,1.50631603
149216,1682211427,52070710,-0.171509882,2.041777939,1.506039703
149217,1682211427,62430187,-0.171223162,2.041834554,1.50572286
149218,1682211427,73096981,-0.170954984,2.041873144,1.505417689
149219,1682211427,82352185,-0.170692963,2.041953751,1.505053964
149220,1682211427,91981452,-0.170384902,2.041871061,1.504858228
149221,1682211427,101843666,-0.170087044,2.041951853,1.504482648
149222,1682211427,112088876,-0.169867792,2.041994466,1.504114271
149223,1682211427,121941768,-0.169506178,2.04192895,1.503813506
149224,1682211427,132085299,-0.169221736,2.041888161,1.503479935
149225,1682211427,142256419,-0.168944119,2.041866152,1.503125554
149226,1682211427,151953520,-0.168644074,2.041739289,1.50277723
149227,1682211427,162336816,-0.168355297,2.041701937,1.502474445
149228,1682211427,172099416,-0.168076722,2.041690662,1.502066204
149229,1682211427,182081268,-0.167790152,2.041680681,1.501713202
149230,1682211427,192269599,-0.167489699,2.041611147,1.50136551
149231,1682211427,202959175,-0.167239163,2.041382648,1.500972549
149232,1682211427,212357453,-0.166864601,2.041354048,1.500701674
149233,1682211427,222586357,-0.166589699,2.041309198,1.500241154
149234,1682211427,232871355,-0.166283146,2.041198291,1.499949561
149235,1682211427,242300936,-0.166033214,2.041091781,1.499653388
149236,1682211427,252523464,-0.165603824,2.041056231,1.499248825
149237,1682211427,262590298,-0.165431128,2.040806281,1.498861046
149238,1682211427,272226399,-0.16510642,2.040763743,1.498607505
149239,1682211427,282380986,-0.164851959,2.040526127,1.498094629
149240,1682211427,294868583,-0.164519369,2.04040784,1.497704615
149241,1682211427,302606415,-0.164170875,2.040168322,1.497427212
149242,1682211427,312601719,-0.163938941,2.040092696,1.496958782
149243,1682211427,322721075,-0.163617542,2.039805897,1.49659205
149244,1682211427,332737660,-0.163442489,2.03968629,1.496046325
149245,1682211427,342628642,-0.16301161,2.039561624,1.495808429
149246,1682211427,355227942,-0.162722338,2.039380849,1.495433063
149247,1682211427,363266977,-0.162493847,2.039264126,1.495036087
149248,1682211427,374026864,-0.162151465,2.038973773,1.494762232
149249,1682211427,382557878,-0.161914615,2.038766798,1.49436187
149250,1682211427,392646716,-0.161576866,2.038703046,1.494006495
149251,1682211427,402399617,-0.161321575,2.038483527,1.493641279
149252,1682211427,412530733,-0.161039535,2.038326417,1.493239458
149253,1682211427,422491112,-0.160775068,2.038084622,1.492921605
149254,1682211427,432374206,-0.160481079,2.037812277,1.492666462
149255,1682211427,442137812,-0.160209734,2.037667502,1.492213582
149256,1682211427,452845818,-0.159995917,2.037584686,1.491969438
149257,1682211427,464139535,-0.159705825,2.037314426,1.49159566
149258,1682211427,473440684,-0.159524271,2.037312817,1.49123603
149259,1682211427,484052943,-0.159233267,2.036990384,1.490923006
149260,1682211427,492659012,-0.158973151,2.036706995,1.490632582
149261,1682211427,502388507,-0.158721996,2.036562435,1.490287567
149262,1682211427,512206192,-0.158537843,2.036464423,1.489941606
149263,1682211427,522524483,-0.158369945,2.036204261,1.489599265
149264,1682211427,532391181,-0.158049302,2.036069415,1.489390055
149265,1682211427,542148726,-0.157853279,2.035852459,1.489163445
149266,1682211427,552775440,-0.157644538,2.035759971,1.488926888
149267,1682211427,562299919,-0.157360683,2.035768011,1.488747254
149268,1682211427,572104348,-0.157170589,2.035437982,1.488475813
149269,1682211427,582412100,-0.15698123,2.035284418,1.488212821
149270,1682211427,594177483,-0.156790539,2.035097609,1.488097015
149271,1682211427,602865919,-0.156626754,2.034995921,1.487898413
149272,1682211427,612373317,-0.156467162,2.034893427,1.487695292
149273,1682211427,622330893,-0.156253163,2.034791326,1.487622525
149274,1682211427,632358499,-0.156062583,2.034781605,1.487573981
149275,1682211427,642382978,-0.155924581,2.034680558,1.487417995
149276,1682211427,652412261,-0.155743512,2.034582186,1.487312179
149277,1682211427,663443151,-0.155585812,2.034510095,1.487238263
149278,1682211427,674481558,-0.155413593,2.034466496,1.487211285
149279,1682211427,682259770,-0.155234634,2.034434762,1.487225122
149280,1682211427,692816386,-0.155080741,2.034371074,1.487141381
149281,1682211427,702466004,-0.154929024,2.034308431,1.487186609
149282,1682211427,712438817,-0.154752467,2.034221972,1.487229528
149283,1682211427,723068006,-0.154604551,2.034223269,1.487245003
149284,1682211427,732845711,-0.154423407,2.03421161,1.487297203
149285,1682211427,743134306,-0.154291463,2.034239386,1.487332629
149286,1682211427,752345532,-0.154082808,2.034245493,1.487349772
149287,1682211427,762664619,-0.154030554,2.034295552,1.487427698
149288,1682211427,773965650,-0.153897282,2.034343419,1.487486595
149289,1682211427,782313905,-0.153746256,2.03443341,1.487541981
149290,1682211427,792411362,-0.153614691,2.034464102,1.487646137
149291,1682211427,802130230,-0.153494251,2.034515769,1.487729378
149292,1682211427,812654593,-0.153370605,2.03460876,1.487824161
149293,1682211427,822465948,-0.153254292,2.034726011,1.487931395
149294,1682211427,832059837,-0.153184907,2.034969449,1.487923463
149295,1682211427,842431943,-0.153064402,2.035111588,1.488017102
149296,1682211427,852426896,-0.152976174,2.035239618,1.4881672
149297,1682211427,862754181,-0.152786943,2.035442,1.488394126
149298,1682211427,872323170,-0.152656785,2.035480162,1.488553029
149299,1682211427,882645951,-0.152666999,2.035757712,1.488619063
149300,1682211427,892527893,-0.152537217,2.035850464,1.488647236
149301,1682211427,902293099,-0.15238724,2.03599816,1.488840513
149302,1682211427,912364584,-0.152289261,2.0359801,1.488904941
149303,1682211427,922282784,-0.152319092,2.036369595,1.489072663
149304,1682211427,932560519,-0.152089433,2.036480507,1.489274673
149305,1682211427,943875620,-0.152016733,2.036771646,1.489346865
149306,1682211427,952305293,-0.152018109,2.036923759,1.489384015
149307,1682211427,962393632,-0.151795039,2.037103719,1.489572542
149308,1682211427,972594952,-0.151752945,2.037350723,1.489600704
149309,1682211427,982387725,-0.151644702,2.037525371,1.4898215
149310,1682211427,992490858,-0.151526103,2.037710894,1.490038081
149311,1682211428,2743555,-0.151409543,2.037983808,1.49014439
149312,1682211428,12676339,-0.151305693,2.038211338,1.490270848
149313,1682211428,22676929,-0.151299123,2.038442226,1.490380896
149314,1682211428,32462522,-0.151181179,2.03866029,1.490530579
149315,1682211428,42950615,-0.150979862,2.038814617,1.490764426
